{
  "stores": [
    {
      "store_name": "Cartfull di Canischio",
      "chain_name": "Cartfull",
      "country": "Italy",
      "city": "Canischio",
      "address": "Via Washington 54 ",
      "latitude": "45.37434585",
      "longitude": "7.59521831",
      "total_capacity": 139,
      "reserved_capacity": 127
    },
    {
      "store_name": "Copp di Ivrea",
      "chain_name": "Copp",
      "country": "Italy",
      "city": "Ivrea",
      "address": "Largo Garibaldi 115 ",
      "latitude": "45.46618879",
      "longitude": "7.87596694",
      "total_capacity": 112,
      "reserved_capacity": 74
    },
    {
      "store_name": "Generali Alimentari di Mercenasco",
      "chain_name": "Generali Alimentari",
      "country": "Italy",
      "city": "Mercenasco",
      "address": "Piazzale Cervo 140 ",
      "latitude": "45.35697859",
      "longitude": "7.88256683",
      "total_capacity": 148,
      "reserved_capacity": 112
    },
    {
      "store_name": "Zetabreve di Meugliano",
      "chain_name": "Zetabreve",
      "country": "Italy",
      "city": "Meugliano",
      "address": "Vicolo Vespucci 49 ",
      "latitude": "45.49006995",
      "longitude": "7.7789622",
      "total_capacity": 157,
      "reserved_capacity": 141
    },
    {
      "store_name": "Copp di Mezzenile",
      "chain_name": "Copp",
      "country": "Italy",
      "city": "Mezzenile",
      "address": "Largo Leonardo da Vinci 142 ",
      "latitude": "45.29240402",
      "longitude": "7.39502001",
      "total_capacity": 72,
      "reserved_capacity": 59
    },
    {
      "store_name": "Eurostore di Novalesa",
      "chain_name": "Eurostore",
      "country": "Italy",
      "city": "Novalesa",
      "address": "Passeggiata Garibaldi 127 ",
      "latitude": "45.18763602",
      "longitude": "7.01466579",
      "total_capacity": 222,
      "reserved_capacity": 195
    },
    {
      "store_name": "Super di Rivoli",
      "chain_name": "Super",
      "country": "Italy",
      "city": "Rivoli",
      "address": "Piazzale Cervo 85 ",
      "latitude": "45.07062854",
      "longitude": "7.53394487",
      "total_capacity": 54,
      "reserved_capacity": 30
    },
    {
      "store_name": "Wallmars di Strambino",
      "chain_name": "Wallmars",
      "country": "Italy",
      "city": "Strambino",
      "address": "Largo Vespucci 124 ",
      "latitude": "45.38458718",
      "longitude": "7.88062828",
      "total_capacity": 149,
      "reserved_capacity": 137
    },
    {
      "store_name": "Ubersmart di Trofarello",
      "chain_name": "Ubersmart",
      "country": "Italy",
      "city": "Trofarello",
      "address": "Via Napoli 148 ",
      "latitude": "44.98596444",
      "longitude": "7.7403033",
      "total_capacity": 121,
      "reserved_capacity": 105
    },
    {
      "store_name": "Super di Vi\u00f9",
      "chain_name": "Super",
      "country": "Italy",
      "city": "Vi\u00f9",
      "address": "Vicolo Napoli 121 ",
      "latitude": "45.23894208",
      "longitude": "7.37646792",
      "total_capacity": 147,
      "reserved_capacity": 132
    },
    {
      "store_name": "Ubersmart di Fontanetto Po",
      "chain_name": "Ubersmart",
      "country": "Italy",
      "city": "Fontanetto Po",
      "address": "Via Vespucci 105 ",
      "latitude": "45.19339547",
      "longitude": "8.19171653",
      "total_capacity": 101,
      "reserved_capacity": 81
    },
    {
      "store_name": "Zetabreve di Casalvolone",
      "chain_name": "Zetabreve",
      "country": "Italy",
      "city": "Casalvolone",
      "address": "Bastioni Fucini 45 ",
      "latitude": "45.3994586",
      "longitude": "8.46436466",
      "total_capacity": 175,
      "reserved_capacity": 149
    },
    {
      "store_name": "Ubersmart di Garbagna Novarese",
      "chain_name": "Ubersmart",
      "country": "Italy",
      "city": "Garbagna Novarese",
      "address": "Via Palermo 92 ",
      "latitude": "45.38665075",
      "longitude": "8.6596796",
      "total_capacity": 96,
      "reserved_capacity": 51
    },
    {
      "store_name": "Little di Albaretto della Torre",
      "chain_name": "Little",
      "country": "Italy",
      "city": "Albaretto della Torre",
      "address": "Corso Umberto II 19 ",
      "latitude": "44.59591514",
      "longitude": "8.06408216",
      "total_capacity": 109,
      "reserved_capacity": 96
    },
    {
      "store_name": "Wallmars di Brossasco",
      "chain_name": "Wallmars",
      "country": "Italy",
      "city": "Brossasco",
      "address": "Bastioni Umberto II 143 ",
      "latitude": "44.57029687",
      "longitude": "7.36044207",
      "total_capacity": 227,
      "reserved_capacity": 217
    },
    {
      "store_name": "Zetabreve di Entracque",
      "chain_name": "Zetabreve",
      "country": "Italy",
      "city": "Entracque",
      "address": "Via Umberto II 10 ",
      "latitude": "44.24075683",
      "longitude": "7.39780279",
      "total_capacity": 229,
      "reserved_capacity": 196
    },
    {
      "store_name": "Ubersmart di Isasca",
      "chain_name": "Ubersmart",
      "country": "Italy",
      "city": "Isasca",
      "address": "Vicolo Bologna 61 ",
      "latitude": "44.58729447",
      "longitude": "7.38154761",
      "total_capacity": 215,
      "reserved_capacity": 184
    },
    {
      "store_name": "Copp di Magliano Alpi",
      "chain_name": "Copp",
      "country": "Italy",
      "city": "Magliano Alpi",
      "address": "Corso Cervo 22 ",
      "latitude": "44.45810047",
      "longitude": "7.79955227",
      "total_capacity": 92,
      "reserved_capacity": 47
    },
    {
      "store_name": "Wallmars di Pagno",
      "chain_name": "Wallmars",
      "country": "Italy",
      "city": "Pagno",
      "address": "Bastioni R. Wagner 163 ",
      "latitude": "44.61374464",
      "longitude": "7.42993582",
      "total_capacity": 239,
      "reserved_capacity": 205
    },
    {
      "store_name": "Little di Roccabruna",
      "chain_name": "Little",
      "country": "Italy",
      "city": "Roccabruna",
      "address": "Bastioni Milano 124 ",
      "latitude": "44.47629522",
      "longitude": "7.34074709",
      "total_capacity": 216,
      "reserved_capacity": 210
    },
    {
      "store_name": "Ubersmart di Torre Mondov\u00ec",
      "chain_name": "Ubersmart",
      "country": "Italy",
      "city": "Torre Mondov\u00ec",
      "address": "Largo Matteotti 92 ",
      "latitude": "44.35204035",
      "longitude": "7.90035121",
      "total_capacity": 198,
      "reserved_capacity": 188
    },
    {
      "store_name": "Cartfull di Trinit\u00e0",
      "chain_name": "Cartfull",
      "country": "Italy",
      "city": "Trinit\u00e0",
      "address": "Largo Giovanni da Procida 44 ",
      "latitude": "44.50746901",
      "longitude": "7.7580356",
      "total_capacity": 140,
      "reserved_capacity": 131
    },
    {
      "store_name": "Super di Vernante",
      "chain_name": "Super",
      "country": "Italy",
      "city": "Vernante",
      "address": "Vicolo Bologna 14 ",
      "latitude": "44.24556459",
      "longitude": "7.53370331",
      "total_capacity": 170,
      "reserved_capacity": 141
    },
    {
      "store_name": "Cartfull di Verzuolo",
      "chain_name": "Cartfull",
      "country": "Italy",
      "city": "Verzuolo",
      "address": "Bastioni R. Wagner 101 ",
      "latitude": "44.59955425",
      "longitude": "7.48312762",
      "total_capacity": 52,
      "reserved_capacity": 33
    },
    {
      "store_name": "Generali Alimentari di Robella",
      "chain_name": "Generali Alimentari",
      "country": "Italy",
      "city": "Robella",
      "address": "Passeggiata Fucini 106 ",
      "latitude": "45.10233231",
      "longitude": "8.100056",
      "total_capacity": 92,
      "reserved_capacity": 69
    },
    {
      "store_name": "Ubersmart di Carrosio",
      "chain_name": "Ubersmart",
      "country": "Italy",
      "city": "Carrosio",
      "address": "Via Vespucci 10 ",
      "latitude": "44.65940501",
      "longitude": "8.83233109",
      "total_capacity": 209,
      "reserved_capacity": 197
    },
    {
      "store_name": "Super di Merana",
      "chain_name": "Super",
      "country": "Italy",
      "city": "Merana",
      "address": "Via R. Wagner 153 ",
      "latitude": "44.51779681",
      "longitude": "8.29752453",
      "total_capacity": 147,
      "reserved_capacity": 126
    },
    {
      "store_name": "Generali Alimentari di Mongiardino Ligure",
      "chain_name": "Generali Alimentari",
      "country": "Italy",
      "city": "Mongiardino Ligure",
      "address": "Largo Napoli 173 ",
      "latitude": "44.63855849",
      "longitude": "9.06126316",
      "total_capacity": 98,
      "reserved_capacity": 87
    },
    {
      "store_name": "O scian di Monleale",
      "chain_name": "O scian",
      "country": "Italy",
      "city": "Monleale",
      "address": "Via Leonardo da Vinci 61 ",
      "latitude": "44.88507491",
      "longitude": "8.9843698",
      "total_capacity": 235,
      "reserved_capacity": 193
    },
    {
      "store_name": "Wallmars di Roccaforte Ligure",
      "chain_name": "Wallmars",
      "country": "Italy",
      "city": "Roccaforte Ligure",
      "address": "Corso Napoli 177 ",
      "latitude": "44.67771211",
      "longitude": "9.02776944",
      "total_capacity": 133,
      "reserved_capacity": 87
    },
    {
      "store_name": "Megamercato di Valtournenche",
      "chain_name": "Megamercato",
      "country": "Italy",
      "city": "Valtournenche",
      "address": "Vicolo R. Wagner 22 ",
      "latitude": "45.8770846",
      "longitude": "7.62270907",
      "total_capacity": 187,
      "reserved_capacity": 156
    },
    {
      "store_name": "Generali Alimentari di Cengio",
      "chain_name": "Generali Alimentari",
      "country": "Italy",
      "city": "Cengio",
      "address": "Vicolo Garibaldi 51 ",
      "latitude": "44.3875635",
      "longitude": "8.20840962",
      "total_capacity": 134,
      "reserved_capacity": 104
    },
    {
      "store_name": "Ubersmart di Vezzi Portio",
      "chain_name": "Ubersmart",
      "country": "Italy",
      "city": "Vezzi Portio",
      "address": "Via Salerno 94 ",
      "latitude": "44.22894653",
      "longitude": "8.36194732",
      "total_capacity": 71,
      "reserved_capacity": 62
    },
    {
      "store_name": "Super di Pieve Ligure",
      "chain_name": "Super",
      "country": "Italy",
      "city": "Pieve Ligure",
      "address": "Parco Gran Sasso 5 ",
      "latitude": "44.37467039",
      "longitude": "9.08689032",
      "total_capacity": 245,
      "reserved_capacity": 230
    },
    {
      "store_name": "Ikao di Arcola",
      "chain_name": "Ikao",
      "country": "Italy",
      "city": "Arcola",
      "address": "Largo Napoleone 79 ",
      "latitude": "44.11461457",
      "longitude": "9.90585039",
      "total_capacity": 204,
      "reserved_capacity": 187
    },
    {
      "store_name": "Copp di Santo Stefano di Magra",
      "chain_name": "Copp",
      "country": "Italy",
      "city": "Santo Stefano di Magra",
      "address": "Parco Vespucci 58 ",
      "latitude": "44.16241113",
      "longitude": "9.91509755",
      "total_capacity": 94,
      "reserved_capacity": 69
    },
    {
      "store_name": "Little di Biandronno",
      "chain_name": "Little",
      "country": "Italy",
      "city": "Biandronno",
      "address": "Largo Umberto II 76 ",
      "latitude": "45.81939412",
      "longitude": "8.71232632",
      "total_capacity": 52,
      "reserved_capacity": 28
    },
    {
      "store_name": "Wallmars di Appiano Gentile",
      "chain_name": "Wallmars",
      "country": "Italy",
      "city": "Appiano Gentile",
      "address": "Largo Fucini 116 ",
      "latitude": "45.73500438",
      "longitude": "8.97949173",
      "total_capacity": 207,
      "reserved_capacity": 193
    },
    {
      "store_name": "Copp di Castiglione d'Intelvi",
      "chain_name": "Copp",
      "country": "Italy",
      "city": "Castiglione d'Intelvi",
      "address": "Piazzale Giovanni da Procida 113 ",
      "latitude": "45.95530894",
      "longitude": "9.09127875",
      "total_capacity": 144,
      "reserved_capacity": 109
    },
    {
      "store_name": "Ubersmart di Fenegr\u00f2",
      "chain_name": "Ubersmart",
      "country": "Italy",
      "city": "Fenegr\u00f2",
      "address": "Via R. Wagner 83 ",
      "latitude": "45.70159962",
      "longitude": "9.00273087",
      "total_capacity": 96,
      "reserved_capacity": 86
    },
    {
      "store_name": "Ikao di Rovello Porro",
      "chain_name": "Ikao",
      "country": "Italy",
      "city": "Rovello Porro",
      "address": "Via Napoleone 136 ",
      "latitude": "45.65439932",
      "longitude": "9.03981948",
      "total_capacity": 168,
      "reserved_capacity": 139
    },
    {
      "store_name": "Eurostore di Sala Comacina",
      "chain_name": "Eurostore",
      "country": "Italy",
      "city": "Sala Comacina",
      "address": "Parco Fucini 113 ",
      "latitude": "45.9642622",
      "longitude": "9.16599583",
      "total_capacity": 108,
      "reserved_capacity": 98
    },
    {
      "store_name": "Copp di Villa Guardia",
      "chain_name": "Copp",
      "country": "Italy",
      "city": "Villa Guardia",
      "address": "Via Matteotti 70 ",
      "latitude": "45.77472871",
      "longitude": "9.02591509",
      "total_capacity": 55,
      "reserved_capacity": 13
    },
    {
      "store_name": "Ubersmart di Ambivere",
      "chain_name": "Ubersmart",
      "country": "Italy",
      "city": "Ambivere",
      "address": "Largo Matteotti 109 ",
      "latitude": "45.71859384",
      "longitude": "9.54722545",
      "total_capacity": 234,
      "reserved_capacity": 211
    },
    {
      "store_name": "Ikao di Ciserano",
      "chain_name": "Ikao",
      "country": "Italy",
      "city": "Ciserano",
      "address": "Passeggiata Cervo 137 ",
      "latitude": "45.58667048",
      "longitude": "9.60072632",
      "total_capacity": 179,
      "reserved_capacity": 138
    },
    {
      "store_name": "Little di Curno",
      "chain_name": "Little",
      "country": "Italy",
      "city": "Curno",
      "address": "Passeggiata Roma 83 ",
      "latitude": "45.69154232",
      "longitude": "9.61132252",
      "total_capacity": 142,
      "reserved_capacity": 107
    },
    {
      "store_name": "Zetabreve di Ranica",
      "chain_name": "Zetabreve",
      "country": "Italy",
      "city": "Ranica",
      "address": "Corso Gran Sasso 64 ",
      "latitude": "45.72696442",
      "longitude": "9.71460508",
      "total_capacity": 55,
      "reserved_capacity": 32
    },
    {
      "store_name": "O scian di San Pellegrino Terme",
      "chain_name": "O scian",
      "country": "Italy",
      "city": "San Pellegrino Terme",
      "address": "Piazza Fucini 172 ",
      "latitude": "45.83833313",
      "longitude": "9.66330535",
      "total_capacity": 130,
      "reserved_capacity": 111
    },
    {
      "store_name": "Little di Capriano del Colle",
      "chain_name": "Little",
      "country": "Italy",
      "city": "Capriano del Colle",
      "address": "Passeggiata Cervo 124 ",
      "latitude": "45.45516249",
      "longitude": "10.12640959",
      "total_capacity": 126,
      "reserved_capacity": 99
    },
    {
      "store_name": "Little di Lavenone",
      "chain_name": "Little",
      "country": "Italy",
      "city": "Lavenone",
      "address": "Piazza Palermo 59 ",
      "latitude": "45.73901274",
      "longitude": "10.43796818",
      "total_capacity": 213,
      "reserved_capacity": 168
    },
    {
      "store_name": "Generali Alimentari di Ro\u00e8 Volciano",
      "chain_name": "Generali Alimentari",
      "country": "Italy",
      "city": "Ro\u00e8 Volciano",
      "address": "Piazzale Napoleone 77 ",
      "latitude": "45.62400951",
      "longitude": "10.49404",
      "total_capacity": 148,
      "reserved_capacity": 124
    },
    {
      "store_name": "O scian di San Felice del Benaco",
      "chain_name": "O scian",
      "country": "Italy",
      "city": "San Felice del Benaco",
      "address": "Largo Socrate 32 ",
      "latitude": "45.58275139",
      "longitude": "10.55377221",
      "total_capacity": 152,
      "reserved_capacity": 128
    },
    {
      "store_name": "Ikao di Casteggio",
      "chain_name": "Ikao",
      "country": "Italy",
      "city": "Casteggio",
      "address": "Passeggiata Matteotti 171 ",
      "latitude": "45.01239955",
      "longitude": "9.12494869",
      "total_capacity": 112,
      "reserved_capacity": 92
    },
    {
      "store_name": "Zetabreve di Sannazzaro de' Burgondi",
      "chain_name": "Zetabreve",
      "country": "Italy",
      "city": "Sannazzaro de' Burgondi",
      "address": "Parco Fucini 1 ",
      "latitude": "45.10316308",
      "longitude": "8.90828982",
      "total_capacity": 138,
      "reserved_capacity": 115
    },
    {
      "store_name": "Copp di Fiesco",
      "chain_name": "Copp",
      "country": "Italy",
      "city": "Fiesco",
      "address": "Via Roma 102 ",
      "latitude": "45.33639762",
      "longitude": "9.77855341",
      "total_capacity": 133,
      "reserved_capacity": 103
    },
    {
      "store_name": "Copp di Gussola",
      "chain_name": "Copp",
      "country": "Italy",
      "city": "Gussola",
      "address": "Via Bologna 72 ",
      "latitude": "45.00988015",
      "longitude": "10.34635794",
      "total_capacity": 147,
      "reserved_capacity": 132
    },
    {
      "store_name": "Ubersmart di Bigarello",
      "chain_name": "Ubersmart",
      "country": "Italy",
      "city": "Bigarello",
      "address": "Via Socrate 152 ",
      "latitude": "45.18012071",
      "longitude": "10.89839216",
      "total_capacity": 127,
      "reserved_capacity": 117
    },
    {
      "store_name": "Ubersmart di Marmirolo",
      "chain_name": "Ubersmart",
      "country": "Italy",
      "city": "Marmirolo",
      "address": "Piazza Leonardo da Vinci 50 ",
      "latitude": "45.22234005",
      "longitude": "10.75731353",
      "total_capacity": 54,
      "reserved_capacity": 46
    },
    {
      "store_name": "Wallmars di Dobbiaco",
      "chain_name": "Wallmars",
      "country": "Italy",
      "city": "Dobbiaco",
      "address": "Largo Cervo 155 ",
      "latitude": "46.73551057",
      "longitude": "12.22019811",
      "total_capacity": 84,
      "reserved_capacity": 40
    },
    {
      "store_name": "O scian di Fi\u00e8 allo Sciliar",
      "chain_name": "O scian",
      "country": "Italy",
      "city": "Fi\u00e8 allo Sciliar",
      "address": "Vicolo Fucini 79 ",
      "latitude": "46.51753578",
      "longitude": "11.50139797",
      "total_capacity": 143,
      "reserved_capacity": 131
    },
    {
      "store_name": "Copp di Parcines",
      "chain_name": "Copp",
      "country": "Italy",
      "city": "Parcines",
      "address": "Bastioni Napoli 158 ",
      "latitude": "46.6844223",
      "longitude": "11.07350936",
      "total_capacity": 94,
      "reserved_capacity": 80
    },
    {
      "store_name": "O scian di Trodena nel parco naturale",
      "chain_name": "O scian",
      "country": "Italy",
      "city": "Trodena nel parco naturale",
      "address": "Largo Bologna 125 ",
      "latitude": "46.32292639",
      "longitude": "11.34933722",
      "total_capacity": 71,
      "reserved_capacity": 32
    },
    {
      "store_name": "Wallmars di Arco",
      "chain_name": "Wallmars",
      "country": "Italy",
      "city": "Arco",
      "address": "Parco Palermo 169 ",
      "latitude": "45.91928662",
      "longitude": "10.8861933",
      "total_capacity": 84,
      "reserved_capacity": 60
    },
    {
      "store_name": "Cartfull di Tesero",
      "chain_name": "Cartfull",
      "country": "Italy",
      "city": "Tesero",
      "address": "Corso Napoleone 8 ",
      "latitude": "46.28933907",
      "longitude": "11.51118835",
      "total_capacity": 53,
      "reserved_capacity": 28
    },
    {
      "store_name": "Wallmars di Dolc\u00e8",
      "chain_name": "Wallmars",
      "country": "Italy",
      "city": "Dolc\u00e8",
      "address": "Parco Napoli 87 ",
      "latitude": "45.60004522",
      "longitude": "10.85270293",
      "total_capacity": 120,
      "reserved_capacity": 93
    },
    {
      "store_name": "O scian di Roveredo di Gu\u00e0",
      "chain_name": "O scian",
      "country": "Italy",
      "city": "Roveredo di Gu\u00e0",
      "address": "Piazzale Matteotti 166 ",
      "latitude": "45.27272571",
      "longitude": "11.44267592",
      "total_capacity": 188,
      "reserved_capacity": 144
    },
    {
      "store_name": "O scian di San Zeno di Montagna",
      "chain_name": "O scian",
      "country": "Italy",
      "city": "San Zeno di Montagna",
      "address": "Via Palermo 28 ",
      "latitude": "45.63794962",
      "longitude": "10.73235851",
      "total_capacity": 72,
      "reserved_capacity": 29
    },
    {
      "store_name": "Copp di Montorso Vicentino",
      "chain_name": "Copp",
      "country": "Italy",
      "city": "Montorso Vicentino",
      "address": "Largo Palermo 104 ",
      "latitude": "45.48964758",
      "longitude": "11.36221682",
      "total_capacity": 130,
      "reserved_capacity": 89
    },
    {
      "store_name": "Super di Sospirolo",
      "chain_name": "Super",
      "country": "Italy",
      "city": "Sospirolo",
      "address": "Passeggiata Socrate 86 ",
      "latitude": "46.14199626",
      "longitude": "12.07315918",
      "total_capacity": 209,
      "reserved_capacity": 187
    },
    {
      "store_name": "Zetabreve di Trichiana",
      "chain_name": "Zetabreve",
      "country": "Italy",
      "city": "Trichiana",
      "address": "Piazzale Fucini 1 ",
      "latitude": "46.06772796",
      "longitude": "12.13606586",
      "total_capacity": 142,
      "reserved_capacity": 94
    },
    {
      "store_name": "Eurostore di Cervarese Santa Croce",
      "chain_name": "Eurostore",
      "country": "Italy",
      "city": "Cervarese Santa Croce",
      "address": "Corso Vespucci 115 ",
      "latitude": "45.40293414",
      "longitude": "11.69190168",
      "total_capacity": 111,
      "reserved_capacity": 72
    },
    {
      "store_name": "Super di Galliera Veneta",
      "chain_name": "Super",
      "country": "Italy",
      "city": "Galliera Veneta",
      "address": "Bastioni Vespucci 33 ",
      "latitude": "45.6628177",
      "longitude": "11.82944868",
      "total_capacity": 152,
      "reserved_capacity": 129
    },
    {
      "store_name": "Ikao di Santa Giustina in Colle",
      "chain_name": "Ikao",
      "country": "Italy",
      "city": "Santa Giustina in Colle",
      "address": "Via Garibaldi 8 ",
      "latitude": "45.56364159",
      "longitude": "11.90617658",
      "total_capacity": 156,
      "reserved_capacity": 117
    },
    {
      "store_name": "Eurostore di Gonars",
      "chain_name": "Eurostore",
      "country": "Italy",
      "city": "Gonars",
      "address": "Parco Washington 64 ",
      "latitude": "45.8965683",
      "longitude": "13.23507614",
      "total_capacity": 224,
      "reserved_capacity": 188
    },
    {
      "store_name": "Cartfull di Povoletto",
      "chain_name": "Cartfull",
      "country": "Italy",
      "city": "Povoletto",
      "address": "Via Roma 160 ",
      "latitude": "46.11810466",
      "longitude": "13.2984561",
      "total_capacity": 176,
      "reserved_capacity": 134
    },
    {
      "store_name": "Little di Trasaghis",
      "chain_name": "Little",
      "country": "Italy",
      "city": "Trasaghis",
      "address": "Via Bologna 101 ",
      "latitude": "46.28235573",
      "longitude": "13.07538131",
      "total_capacity": 243,
      "reserved_capacity": 211
    },
    {
      "store_name": "O scian di Pecorara",
      "chain_name": "O scian",
      "country": "Italy",
      "city": "Pecorara",
      "address": "Largo Vespucci 156 ",
      "latitude": "44.87549564",
      "longitude": "9.3836234",
      "total_capacity": 128,
      "reserved_capacity": 116
    },
    {
      "store_name": "Wallmars di Ponte dell'Olio",
      "chain_name": "Wallmars",
      "country": "Italy",
      "city": "Ponte dell'Olio",
      "address": "Bastioni Giovanni da Procida 150 ",
      "latitude": "44.86789793",
      "longitude": "9.64285028",
      "total_capacity": 233,
      "reserved_capacity": 209
    },
    {
      "store_name": "Copp di Rivergaro",
      "chain_name": "Copp",
      "country": "Italy",
      "city": "Rivergaro",
      "address": "Via Cervo 85 ",
      "latitude": "44.91070815",
      "longitude": "9.597564",
      "total_capacity": 98,
      "reserved_capacity": 70
    },
    {
      "store_name": "Megamercato di Villanova sull'Arda",
      "chain_name": "Megamercato",
      "country": "Italy",
      "city": "Villanova sull'Arda",
      "address": "Via R. Wagner 90 ",
      "latitude": "45.02582296",
      "longitude": "9.99741768",
      "total_capacity": 199,
      "reserved_capacity": 183
    },
    {
      "store_name": "Ikao di Valmozzola",
      "chain_name": "Ikao",
      "country": "Italy",
      "city": "Valmozzola",
      "address": "Parco Garibaldi 39 ",
      "latitude": "44.5682637",
      "longitude": "9.88488216",
      "total_capacity": 227,
      "reserved_capacity": 185
    },
    {
      "store_name": "Super di Reggiolo",
      "chain_name": "Super",
      "country": "Italy",
      "city": "Reggiolo",
      "address": "Largo Matteotti 140 ",
      "latitude": "44.91859155",
      "longitude": "10.80428415",
      "total_capacity": 234,
      "reserved_capacity": 224
    },
    {
      "store_name": "Cartfull di Fanano",
      "chain_name": "Cartfull",
      "country": "Italy",
      "city": "Fanano",
      "address": "Bastioni Garibaldi 142 ",
      "latitude": "44.20740301",
      "longitude": "10.79514031",
      "total_capacity": 208,
      "reserved_capacity": 173
    },
    {
      "store_name": "Zetabreve di Dovadola",
      "chain_name": "Zetabreve",
      "country": "Italy",
      "city": "Dovadola",
      "address": "Parco Gran Sasso 51 ",
      "latitude": "44.12161957",
      "longitude": "11.88746782",
      "total_capacity": 127,
      "reserved_capacity": 111
    },
    {
      "store_name": "Generali Alimentari di Monte Porzio",
      "chain_name": "Generali Alimentari",
      "country": "Italy",
      "city": "Monte Porzio",
      "address": "Corso Salerno 50 ",
      "latitude": "43.68986551",
      "longitude": "13.04518523",
      "total_capacity": 213,
      "reserved_capacity": 167
    },
    {
      "store_name": "Megamercato di Piobbico",
      "chain_name": "Megamercato",
      "country": "Italy",
      "city": "Piobbico",
      "address": "Corso R. Wagner 149 ",
      "latitude": "43.58882426",
      "longitude": "12.5103492",
      "total_capacity": 121,
      "reserved_capacity": 86
    },
    {
      "store_name": "Ubersmart di Osimo",
      "chain_name": "Ubersmart",
      "country": "Italy",
      "city": "Osimo",
      "address": "Via Vesuvio 133 ",
      "latitude": "43.48618905",
      "longitude": "13.48190682",
      "total_capacity": 222,
      "reserved_capacity": 196
    },
    {
      "store_name": "Little di Senigallia",
      "chain_name": "Little",
      "country": "Italy",
      "city": "Senigallia",
      "address": "Vicolo Salerno 60 ",
      "latitude": "43.71482786",
      "longitude": "13.21778017",
      "total_capacity": 243,
      "reserved_capacity": 228
    },
    {
      "store_name": "Generali Alimentari di Serra de' Conti",
      "chain_name": "Generali Alimentari",
      "country": "Italy",
      "city": "Serra de' Conti",
      "address": "Via Umberto II 147 ",
      "latitude": "43.5425796",
      "longitude": "13.03777268",
      "total_capacity": 70,
      "reserved_capacity": 57
    },
    {
      "store_name": "Zetabreve di San Benedetto del Tronto",
      "chain_name": "Zetabreve",
      "country": "Italy",
      "city": "San Benedetto del Tronto",
      "address": "Largo Vesuvio 141 ",
      "latitude": "42.9436327",
      "longitude": "13.88291098",
      "total_capacity": 219,
      "reserved_capacity": 204
    },
    {
      "store_name": "Ubersmart di Villa Collemandina",
      "chain_name": "Ubersmart",
      "country": "Italy",
      "city": "Villa Collemandina",
      "address": "Piazza Bologna 21 ",
      "latitude": "44.15957668",
      "longitude": "10.39757231",
      "total_capacity": 103,
      "reserved_capacity": 97
    },
    {
      "store_name": "Megamercato di Vaglia",
      "chain_name": "Megamercato",
      "country": "Italy",
      "city": "Vaglia",
      "address": "Parco Napoleone 175 ",
      "latitude": "43.90656867",
      "longitude": "11.28135672",
      "total_capacity": 102,
      "reserved_capacity": 76
    },
    {
      "store_name": "Ubersmart di Santa Luce",
      "chain_name": "Ubersmart",
      "country": "Italy",
      "city": "Santa Luce",
      "address": "Parco Palermo 23 ",
      "latitude": "43.47250273",
      "longitude": "10.56481909",
      "total_capacity": 150,
      "reserved_capacity": 110
    },
    {
      "store_name": "Copp di Murlo",
      "chain_name": "Copp",
      "country": "Italy",
      "city": "Murlo",
      "address": "Corso Napoleone 177 ",
      "latitude": "43.16848863",
      "longitude": "11.39110337",
      "total_capacity": 216,
      "reserved_capacity": 175
    },
    {
      "store_name": "Ubersmart di Montone",
      "chain_name": "Ubersmart",
      "country": "Italy",
      "city": "Montone",
      "address": "Largo Leonardo da Vinci 130 ",
      "latitude": "43.36371769",
      "longitude": "12.3268388",
      "total_capacity": 111,
      "reserved_capacity": 69
    },
    {
      "store_name": "Generali Alimentari di Valtopina",
      "chain_name": "Generali Alimentari",
      "country": "Italy",
      "city": "Valtopina",
      "address": "Corso Gran Sasso 113 ",
      "latitude": "43.0590367",
      "longitude": "12.75447309",
      "total_capacity": 177,
      "reserved_capacity": 168
    },
    {
      "store_name": "Ikao di Alviano",
      "chain_name": "Ikao",
      "country": "Italy",
      "city": "Alviano",
      "address": "Passeggiata Vespucci 58 ",
      "latitude": "42.58772713",
      "longitude": "12.29564824",
      "total_capacity": 127,
      "reserved_capacity": 102
    },
    {
      "store_name": "Ubersmart di Penna in Teverina",
      "chain_name": "Ubersmart",
      "country": "Italy",
      "city": "Penna in Teverina",
      "address": "Via Fucini 109 ",
      "latitude": "42.49301561",
      "longitude": "12.3553855",
      "total_capacity": 80,
      "reserved_capacity": 50
    },
    {
      "store_name": "Ikao di Canino",
      "chain_name": "Ikao",
      "country": "Italy",
      "city": "Canino",
      "address": "Parco Milano 19 ",
      "latitude": "42.46417405",
      "longitude": "11.74907335",
      "total_capacity": 220,
      "reserved_capacity": 187
    },
    {
      "store_name": "Generali Alimentari di Villa San Giovanni in Tuscia",
      "chain_name": "Generali Alimentari",
      "country": "Italy",
      "city": "Villa San Giovanni in Tuscia",
      "address": "Corso Fucini 23 ",
      "latitude": "42.28352046",
      "longitude": "12.05294039",
      "total_capacity": 214,
      "reserved_capacity": 171
    },
    {
      "store_name": "Generali Alimentari di Cantalice",
      "chain_name": "Generali Alimentari",
      "country": "Italy",
      "city": "Cantalice",
      "address": "Via Giovanni da Procida 83 ",
      "latitude": "42.4682975",
      "longitude": "12.90354982",
      "total_capacity": 225,
      "reserved_capacity": 182
    },
    {
      "store_name": "Little di Castel Sant'Angelo",
      "chain_name": "Little",
      "country": "Italy",
      "city": "Castel Sant'Angelo",
      "address": "Bastioni Vespucci 165 ",
      "latitude": "42.39477735",
      "longitude": "13.02993539",
      "total_capacity": 64,
      "reserved_capacity": 38
    },
    {
      "store_name": "Zetabreve di Anticoli Corrado",
      "chain_name": "Zetabreve",
      "country": "Italy",
      "city": "Anticoli Corrado",
      "address": "Via R. Wagner 67 ",
      "latitude": "42.00933844",
      "longitude": "12.99038438",
      "total_capacity": 214,
      "reserved_capacity": 197
    },
    {
      "store_name": "Super di Castelnuovo di Porto",
      "chain_name": "Super",
      "country": "Italy",
      "city": "Castelnuovo di Porto",
      "address": "Corso Napoleone 150 ",
      "latitude": "42.1257946",
      "longitude": "12.50044876",
      "total_capacity": 192,
      "reserved_capacity": 178
    },
    {
      "store_name": "Ikao di Cerveteri",
      "chain_name": "Ikao",
      "country": "Italy",
      "city": "Cerveteri",
      "address": "Bastioni Bologna 19 ",
      "latitude": "41.99824253",
      "longitude": "12.09896835",
      "total_capacity": 69,
      "reserved_capacity": 36
    },
    {
      "store_name": "O scian di Cineto Romano",
      "chain_name": "O scian",
      "country": "Italy",
      "city": "Cineto Romano",
      "address": "Via Salerno 51 ",
      "latitude": "42.05024048",
      "longitude": "12.96392369",
      "total_capacity": 247,
      "reserved_capacity": 230
    },
    {
      "store_name": "Copp di Manziana",
      "chain_name": "Copp",
      "country": "Italy",
      "city": "Manziana",
      "address": "Passeggiata Washington 83 ",
      "latitude": "42.12945259",
      "longitude": "12.12824574",
      "total_capacity": 173,
      "reserved_capacity": 140
    },
    {
      "store_name": "Ikao di Mentana",
      "chain_name": "Ikao",
      "country": "Italy",
      "city": "Mentana",
      "address": "Bastioni Fucini 6 ",
      "latitude": "42.03370532",
      "longitude": "12.63722447",
      "total_capacity": 81,
      "reserved_capacity": 60
    },
    {
      "store_name": "Ubersmart di Sambuci",
      "chain_name": "Ubersmart",
      "country": "Italy",
      "city": "Sambuci",
      "address": "Passeggiata Giovanni da Procida 141 ",
      "latitude": "41.98627446",
      "longitude": "12.93740404",
      "total_capacity": 221,
      "reserved_capacity": 200
    },
    {
      "store_name": "Copp di Collepardo",
      "chain_name": "Copp",
      "country": "Italy",
      "city": "Collepardo",
      "address": "Via Washington 67 ",
      "latitude": "41.76118715",
      "longitude": "13.36771371",
      "total_capacity": 231,
      "reserved_capacity": 216
    },
    {
      "store_name": "Little di Roccasecca",
      "chain_name": "Little",
      "country": "Italy",
      "city": "Roccasecca",
      "address": "Parco Vespucci 6 ",
      "latitude": "41.55183951",
      "longitude": "13.66861615",
      "total_capacity": 92,
      "reserved_capacity": 65
    },
    {
      "store_name": "O scian di Veroli",
      "chain_name": "O scian",
      "country": "Italy",
      "city": "Veroli",
      "address": "Corso Leonardo da Vinci 143 ",
      "latitude": "41.69100425",
      "longitude": "13.41787776",
      "total_capacity": 153,
      "reserved_capacity": 141
    },
    {
      "store_name": "O scian di Liberi",
      "chain_name": "O scian",
      "country": "Italy",
      "city": "Liberi",
      "address": "Via Cervo 116 ",
      "latitude": "41.2227652",
      "longitude": "14.28220876",
      "total_capacity": 107,
      "reserved_capacity": 63
    },
    {
      "store_name": "Copp di Sant'Angelo d'Alife",
      "chain_name": "Copp",
      "country": "Italy",
      "city": "Sant'Angelo d'Alife",
      "address": "Piazza Garibaldi 132 ",
      "latitude": "41.3626447",
      "longitude": "14.25965786",
      "total_capacity": 179,
      "reserved_capacity": 142
    },
    {
      "store_name": "O scian di Cusano Mutri",
      "chain_name": "O scian",
      "country": "Italy",
      "city": "Cusano Mutri",
      "address": "Via Milano 48 ",
      "latitude": "41.33756175",
      "longitude": "14.50879373",
      "total_capacity": 51,
      "reserved_capacity": 20
    },
    {
      "store_name": "Ikao di Foglianise",
      "chain_name": "Ikao",
      "country": "Italy",
      "city": "Foglianise",
      "address": "Piazzale Leonardo da Vinci 168 ",
      "latitude": "41.15696538",
      "longitude": "14.67155655",
      "total_capacity": 175,
      "reserved_capacity": 133
    },
    {
      "store_name": "Cartfull di Procida",
      "chain_name": "Cartfull",
      "country": "Italy",
      "city": "Procida",
      "address": "Via Leonardo da Vinci 17 ",
      "latitude": "40.76578674",
      "longitude": "14.02403961",
      "total_capacity": 187,
      "reserved_capacity": 150
    },
    {
      "store_name": "Ubersmart di Caposele",
      "chain_name": "Ubersmart",
      "country": "Italy",
      "city": "Caposele",
      "address": "Vicolo Salerno 170 ",
      "latitude": "40.8136263",
      "longitude": "15.22614616",
      "total_capacity": 181,
      "reserved_capacity": 147
    },
    {
      "store_name": "Ubersmart di Torrioni",
      "chain_name": "Ubersmart",
      "country": "Italy",
      "city": "Torrioni",
      "address": "Parco Napoleone 27 ",
      "latitude": "41.03410042",
      "longitude": "14.81351286",
      "total_capacity": 109,
      "reserved_capacity": 77
    },
    {
      "store_name": "Ikao di Altavilla Silentina",
      "chain_name": "Ikao",
      "country": "Italy",
      "city": "Altavilla Silentina",
      "address": "Largo Giovanni da Procida 30 ",
      "latitude": "40.5271738",
      "longitude": "15.13759173",
      "total_capacity": 213,
      "reserved_capacity": 198
    },
    {
      "store_name": "Little di Magliano Vetere",
      "chain_name": "Little",
      "country": "Italy",
      "city": "Magliano Vetere",
      "address": "Via Bologna 25 ",
      "latitude": "40.34702141",
      "longitude": "15.23635242",
      "total_capacity": 169,
      "reserved_capacity": 151
    },
    {
      "store_name": "Copp di Pollica",
      "chain_name": "Copp",
      "country": "Italy",
      "city": "Pollica",
      "address": "Vicolo Matteotti 138 ",
      "latitude": "40.19070542",
      "longitude": "15.05734127",
      "total_capacity": 92,
      "reserved_capacity": 52
    },
    {
      "store_name": "Little di Capistrello",
      "chain_name": "Little",
      "country": "Italy",
      "city": "Capistrello",
      "address": "Largo Cervo 163 ",
      "latitude": "41.96555325",
      "longitude": "13.3896681",
      "total_capacity": 190,
      "reserved_capacity": 157
    },
    {
      "store_name": "Megamercato di Prata d'Ansidonia",
      "chain_name": "Megamercato",
      "country": "Italy",
      "city": "Prata d'Ansidonia",
      "address": "Largo Palermo 96 ",
      "latitude": "42.27824054",
      "longitude": "13.60628119",
      "total_capacity": 184,
      "reserved_capacity": 172
    },
    {
      "store_name": "Megamercato di San Benedetto dei Marsi",
      "chain_name": "Megamercato",
      "country": "Italy",
      "city": "San Benedetto dei Marsi",
      "address": "Via Matteotti 77 ",
      "latitude": "42.00645326",
      "longitude": "13.62330577",
      "total_capacity": 210,
      "reserved_capacity": 162
    },
    {
      "store_name": "Super di Castel Frentano",
      "chain_name": "Super",
      "country": "Italy",
      "city": "Castel Frentano",
      "address": "Parco Giovanni da Procida 147 ",
      "latitude": "42.19622327",
      "longitude": "14.35661796",
      "total_capacity": 160,
      "reserved_capacity": 150
    },
    {
      "store_name": "Cartfull di Limosano",
      "chain_name": "Cartfull",
      "country": "Italy",
      "city": "Limosano",
      "address": "Largo Vesuvio 49 ",
      "latitude": "41.67663217",
      "longitude": "14.62117165",
      "total_capacity": 236,
      "reserved_capacity": 195
    },
    {
      "store_name": "Ikao di Salcito",
      "chain_name": "Ikao",
      "country": "Italy",
      "city": "Salcito",
      "address": "Passeggiata Napoli 163 ",
      "latitude": "41.74735883",
      "longitude": "14.51082012",
      "total_capacity": 179,
      "reserved_capacity": 157
    },
    {
      "store_name": "Cartfull di Termoli",
      "chain_name": "Cartfull",
      "country": "Italy",
      "city": "Termoli",
      "address": "Vicolo Napoli 59 ",
      "latitude": "42.00270989",
      "longitude": "14.99554396",
      "total_capacity": 218,
      "reserved_capacity": 186
    },
    {
      "store_name": "Zetabreve di Accadia",
      "chain_name": "Zetabreve",
      "country": "Italy",
      "city": "Accadia",
      "address": "Via Napoleone 43 ",
      "latitude": "41.15811611",
      "longitude": "15.33092322",
      "total_capacity": 58,
      "reserved_capacity": 48
    },
    {
      "store_name": "Generali Alimentari di Ascoli Satriano",
      "chain_name": "Generali Alimentari",
      "country": "Italy",
      "city": "Ascoli Satriano",
      "address": "Via Milano 50 ",
      "latitude": "41.20814602",
      "longitude": "15.56026594",
      "total_capacity": 63,
      "reserved_capacity": 53
    },
    {
      "store_name": "Copp di Sant'Agata di Puglia",
      "chain_name": "Copp",
      "country": "Italy",
      "city": "Sant'Agata di Puglia",
      "address": "Passeggiata Washington 23 ",
      "latitude": "41.15031932",
      "longitude": "15.37938715",
      "total_capacity": 91,
      "reserved_capacity": 55
    },
    {
      "store_name": "Eurostore di Vieste",
      "chain_name": "Eurostore",
      "country": "Italy",
      "city": "Vieste",
      "address": "Piazzale Fucini 150 ",
      "latitude": "41.88161463",
      "longitude": "16.18063171",
      "total_capacity": 147,
      "reserved_capacity": 126
    },
    {
      "store_name": "Super di Corigliano d'Otranto",
      "chain_name": "Super",
      "country": "Italy",
      "city": "Corigliano d'Otranto",
      "address": "Piazza Napoleone 170 ",
      "latitude": "40.1599076",
      "longitude": "18.26174637",
      "total_capacity": 186,
      "reserved_capacity": 151
    },
    {
      "store_name": "Eurostore di Giuggianello",
      "chain_name": "Eurostore",
      "country": "Italy",
      "city": "Giuggianello",
      "address": "Via Roma 96 ",
      "latitude": "40.0939455",
      "longitude": "18.36869462",
      "total_capacity": 148,
      "reserved_capacity": 132
    },
    {
      "store_name": "Super di Nard\u00f2",
      "chain_name": "Super",
      "country": "Italy",
      "city": "Nard\u00f2",
      "address": "Largo Garibaldi 34 ",
      "latitude": "40.17594334",
      "longitude": "18.0311969",
      "total_capacity": 122,
      "reserved_capacity": 78
    },
    {
      "store_name": "Zetabreve di Sogliano Cavour",
      "chain_name": "Zetabreve",
      "country": "Italy",
      "city": "Sogliano Cavour",
      "address": "Passeggiata Vesuvio 155 ",
      "latitude": "40.1462344",
      "longitude": "18.19941365",
      "total_capacity": 247,
      "reserved_capacity": 234
    },
    {
      "store_name": "Ikao di Latronico",
      "chain_name": "Ikao",
      "country": "Italy",
      "city": "Latronico",
      "address": "Bastioni Vespucci 64 ",
      "latitude": "40.08856189",
      "longitude": "16.00906565",
      "total_capacity": 175,
      "reserved_capacity": 150
    },
    {
      "store_name": "Ikao di Missanello",
      "chain_name": "Ikao",
      "country": "Italy",
      "city": "Missanello",
      "address": "Parco Matteotti 96 ",
      "latitude": "40.28219989",
      "longitude": "16.16521106",
      "total_capacity": 233,
      "reserved_capacity": 190
    },
    {
      "store_name": "Megamercato di Vaglio Basilicata",
      "chain_name": "Megamercato",
      "country": "Italy",
      "city": "Vaglio Basilicata",
      "address": "Via Socrate 157 ",
      "latitude": "40.66580154",
      "longitude": "15.91999931",
      "total_capacity": 203,
      "reserved_capacity": 158
    },
    {
      "store_name": "Zetabreve di Bocchigliero",
      "chain_name": "Zetabreve",
      "country": "Italy",
      "city": "Bocchigliero",
      "address": "Vicolo Bologna 37 ",
      "latitude": "39.41775539",
      "longitude": "16.7562776",
      "total_capacity": 85,
      "reserved_capacity": 58
    },
    {
      "store_name": "Cartfull di Domanico",
      "chain_name": "Cartfull",
      "country": "Italy",
      "city": "Domanico",
      "address": "Parco Umberto II 145 ",
      "latitude": "39.21523217",
      "longitude": "16.20734893",
      "total_capacity": 80,
      "reserved_capacity": 49
    },
    {
      "store_name": "Little di Malvito",
      "chain_name": "Little",
      "country": "Italy",
      "city": "Malvito",
      "address": "Parco Giovanni da Procida 143 ",
      "latitude": "39.60105409",
      "longitude": "16.05340915",
      "total_capacity": 243,
      "reserved_capacity": 204
    },
    {
      "store_name": "Eurostore di Marzi",
      "chain_name": "Eurostore",
      "country": "Italy",
      "city": "Marzi",
      "address": "Via Washington 40 ",
      "latitude": "39.17062752",
      "longitude": "16.30704697",
      "total_capacity": 163,
      "reserved_capacity": 119
    },
    {
      "store_name": "Ikao di San Sosti",
      "chain_name": "Ikao",
      "country": "Italy",
      "city": "San Sosti",
      "address": "Piazza Vesuvio 47 ",
      "latitude": "39.65815182",
      "longitude": "16.02916167",
      "total_capacity": 134,
      "reserved_capacity": 95
    },
    {
      "store_name": "Super di Santo Stefano di Rogliano",
      "chain_name": "Super",
      "country": "Italy",
      "city": "Santo Stefano di Rogliano",
      "address": "Bastioni Socrate 158 ",
      "latitude": "39.19223486",
      "longitude": "16.3207926",
      "total_capacity": 168,
      "reserved_capacity": 147
    },
    {
      "store_name": "Zetabreve di Taverna",
      "chain_name": "Zetabreve",
      "country": "Italy",
      "city": "Taverna",
      "address": "Vicolo Vespucci 61 ",
      "latitude": "39.01999644",
      "longitude": "16.5824687",
      "total_capacity": 189,
      "reserved_capacity": 170
    },
    {
      "store_name": "Generali Alimentari di Africo",
      "chain_name": "Generali Alimentari",
      "country": "Italy",
      "city": "Africo",
      "address": "Via Cervo 125 ",
      "latitude": "38.05016319",
      "longitude": "16.130377",
      "total_capacity": 86,
      "reserved_capacity": 64
    },
    {
      "store_name": "Cartfull di Gioiosa Ionica",
      "chain_name": "Cartfull",
      "country": "Italy",
      "city": "Gioiosa Ionica",
      "address": "Piazzale Napoleone 153 ",
      "latitude": "38.33631823",
      "longitude": "16.30252468",
      "total_capacity": 73,
      "reserved_capacity": 31
    },
    {
      "store_name": "Zetabreve di Marina di Gioiosa Ionica",
      "chain_name": "Zetabreve",
      "country": "Italy",
      "city": "Marina di Gioiosa Ionica",
      "address": "Bastioni Vesuvio 40 ",
      "latitude": "38.30332259",
      "longitude": "16.32907275",
      "total_capacity": 54,
      "reserved_capacity": 15
    },
    {
      "store_name": "Copp di San Pietro di Carid\u00e0",
      "chain_name": "Copp",
      "country": "Italy",
      "city": "San Pietro di Carid\u00e0",
      "address": "Via Garibaldi 92 ",
      "latitude": "38.52168913",
      "longitude": "16.13242869",
      "total_capacity": 128,
      "reserved_capacity": 102
    },
    {
      "store_name": "Copp di Campobello di Mazara",
      "chain_name": "Copp",
      "country": "Italy",
      "city": "Campobello di Mazara",
      "address": "Vicolo Socrate 79 ",
      "latitude": "37.63458999",
      "longitude": "12.74409014",
      "total_capacity": 105,
      "reserved_capacity": 99
    },
    {
      "store_name": "Little di Partanna",
      "chain_name": "Little",
      "country": "Italy",
      "city": "Partanna",
      "address": "Via Fucini 65 ",
      "latitude": "37.7213966",
      "longitude": "12.88966372",
      "total_capacity": 156,
      "reserved_capacity": 139
    },
    {
      "store_name": "Little di Pollina",
      "chain_name": "Little",
      "country": "Italy",
      "city": "Pollina",
      "address": "Corso Roma 34 ",
      "latitude": "37.99424976",
      "longitude": "14.14658207",
      "total_capacity": 161,
      "reserved_capacity": 154
    },
    {
      "store_name": "Copp di Prizzi",
      "chain_name": "Copp",
      "country": "Italy",
      "city": "Prizzi",
      "address": "Piazzale Napoli 113 ",
      "latitude": "37.72165331",
      "longitude": "13.4309912",
      "total_capacity": 86,
      "reserved_capacity": 74
    },
    {
      "store_name": "Ikao di Furnari",
      "chain_name": "Ikao",
      "country": "Italy",
      "city": "Furnari",
      "address": "Piazzale Salerno 55 ",
      "latitude": "38.10475339",
      "longitude": "15.12548931",
      "total_capacity": 136,
      "reserved_capacity": 105
    },
    {
      "store_name": "Ubersmart di Librizzi",
      "chain_name": "Ubersmart",
      "country": "Italy",
      "city": "Librizzi",
      "address": "Via Bologna 118 ",
      "latitude": "38.09716507",
      "longitude": "14.95818725",
      "total_capacity": 248,
      "reserved_capacity": 214
    },
    {
      "store_name": "Zetabreve di Siculiana",
      "chain_name": "Zetabreve",
      "country": "Italy",
      "city": "Siculiana",
      "address": "Via Salerno 173 ",
      "latitude": "37.33648457",
      "longitude": "13.42004274",
      "total_capacity": 90,
      "reserved_capacity": 56
    },
    {
      "store_name": "Megamercato di Sommatino",
      "chain_name": "Megamercato",
      "country": "Italy",
      "city": "Sommatino",
      "address": "Vicolo Giovanni da Procida 81 ",
      "latitude": "37.33386339",
      "longitude": "13.99122294",
      "total_capacity": 178,
      "reserved_capacity": 160
    },
    {
      "store_name": "Megamercato di Acate",
      "chain_name": "Megamercato",
      "country": "Italy",
      "city": "Acate",
      "address": "Piazzale Leonardo da Vinci 111 ",
      "latitude": "37.02640029",
      "longitude": "14.49372908",
      "total_capacity": 206,
      "reserved_capacity": 200
    },
    {
      "store_name": "Super di Comiso",
      "chain_name": "Super",
      "country": "Italy",
      "city": "Comiso",
      "address": "Largo Cervo 172 ",
      "latitude": "36.94565701",
      "longitude": "14.60468609",
      "total_capacity": 127,
      "reserved_capacity": 117
    },
    {
      "store_name": "Wallmars di Bortigiadas",
      "chain_name": "Wallmars",
      "country": "Italy",
      "city": "Bortigiadas",
      "address": "Largo Palermo 148 ",
      "latitude": "40.89144536",
      "longitude": "9.04327192",
      "total_capacity": 78,
      "reserved_capacity": 36
    },
    {
      "store_name": "Zetabreve di Sorso",
      "chain_name": "Zetabreve",
      "country": "Italy",
      "city": "Sorso",
      "address": "Via Napoli 86 ",
      "latitude": "40.79697664",
      "longitude": "8.57785537",
      "total_capacity": 56,
      "reserved_capacity": 40
    },
    {
      "store_name": "Megamercato di Nuoro",
      "chain_name": "Megamercato",
      "country": "Italy",
      "city": "Nuoro",
      "address": "Parco Bologna 53 ",
      "latitude": "40.32318834",
      "longitude": "9.33029639",
      "total_capacity": 107,
      "reserved_capacity": 93
    },
    {
      "store_name": "O scian di Orosei",
      "chain_name": "O scian",
      "country": "Italy",
      "city": "Orosei",
      "address": "Passeggiata Napoleone 84 ",
      "latitude": "40.37860068",
      "longitude": "9.6971319",
      "total_capacity": 234,
      "reserved_capacity": 199
    },
    {
      "store_name": "Little di Acquaviva d'Isernia",
      "chain_name": "Little",
      "country": "Italy",
      "city": "Acquaviva d'Isernia",
      "address": "Bastioni Napoleone 38 ",
      "latitude": "41.67210928",
      "longitude": "14.14986101",
      "total_capacity": 173,
      "reserved_capacity": 139
    },
    {
      "store_name": "Eurostore di Roccasicura",
      "chain_name": "Eurostore",
      "country": "Italy",
      "city": "Roccasicura",
      "address": "Largo Salerno 88 ",
      "latitude": "41.69820278",
      "longitude": "14.23174503",
      "total_capacity": 168,
      "reserved_capacity": 159
    },
    {
      "store_name": "Super di Laconi",
      "chain_name": "Super",
      "country": "Italy",
      "city": "Laconi",
      "address": "Piazza Leonardo da Vinci 61 ",
      "latitude": "39.8539383",
      "longitude": "9.05223689",
      "total_capacity": 113,
      "reserved_capacity": 100
    },
    {
      "store_name": "Little di Coggiola",
      "chain_name": "Little",
      "country": "Italy",
      "city": "Coggiola",
      "address": "Largo Napoli 9 ",
      "latitude": "45.68458119",
      "longitude": "8.18516433",
      "total_capacity": 109,
      "reserved_capacity": 82
    },
    {
      "store_name": "Ikao di Tavigliano",
      "chain_name": "Ikao",
      "country": "Italy",
      "city": "Tavigliano",
      "address": "Parco Gran Sasso 7 ",
      "latitude": "45.62362698",
      "longitude": "8.05319422",
      "total_capacity": 70,
      "reserved_capacity": 57
    },
    {
      "store_name": "Zetabreve di Lomagna",
      "chain_name": "Zetabreve",
      "country": "Italy",
      "city": "Lomagna",
      "address": "Vicolo Giovanni da Procida 13 ",
      "latitude": "45.66758561",
      "longitude": "9.37567172",
      "total_capacity": 243,
      "reserved_capacity": 195
    },
    {
      "store_name": "Eurostore di Perledo",
      "chain_name": "Eurostore",
      "country": "Italy",
      "city": "Perledo",
      "address": "Parco Matteotti 44 ",
      "latitude": "46.01528711",
      "longitude": "9.29557182",
      "total_capacity": 92,
      "reserved_capacity": 57
    },
    {
      "store_name": "Ubersmart di Comazzo",
      "chain_name": "Ubersmart",
      "country": "Italy",
      "city": "Comazzo",
      "address": "Largo Palermo 50 ",
      "latitude": "45.44065289",
      "longitude": "9.46396154",
      "total_capacity": 180,
      "reserved_capacity": 136
    },
    {
      "store_name": "Ubersmart di Somaglia",
      "chain_name": "Ubersmart",
      "country": "Italy",
      "city": "Somaglia",
      "address": "Passeggiata Washington 175 ",
      "latitude": "45.14698574",
      "longitude": "9.63788616",
      "total_capacity": 181,
      "reserved_capacity": 153
    },
    {
      "store_name": "Cartfull di Coriano",
      "chain_name": "Cartfull",
      "country": "Italy",
      "city": "Coriano",
      "address": "Via Vespucci 92 ",
      "latitude": "43.9644061",
      "longitude": "12.60253363",
      "total_capacity": 56,
      "reserved_capacity": 12
    },
    {
      "store_name": "Copp di Verucchio",
      "chain_name": "Copp",
      "country": "Italy",
      "city": "Verucchio",
      "address": "Largo Bologna 157 ",
      "latitude": "43.98370542",
      "longitude": "12.42138257",
      "total_capacity": 245,
      "reserved_capacity": 203
    },
    {
      "store_name": "Ikao di Francavilla Angitola",
      "chain_name": "Ikao",
      "country": "Italy",
      "city": "Francavilla Angitola",
      "address": "Corso Vespucci 148 ",
      "latitude": "38.77801727",
      "longitude": "16.27066608",
      "total_capacity": 241,
      "reserved_capacity": 197
    },
    {
      "store_name": "Ubersmart di Omegna",
      "chain_name": "Ubersmart",
      "country": "Italy",
      "city": "Omegna",
      "address": "Largo Washington 129 ",
      "latitude": "45.87561647",
      "longitude": "8.40892832",
      "total_capacity": 94,
      "reserved_capacity": 56
    },
    {
      "store_name": "Megamercato di Borgomezzavalle",
      "chain_name": "Megamercato",
      "country": "Italy",
      "city": "Borgomezzavalle",
      "address": "Piazzale Palermo 93 ",
      "latitude": "46.0532",
      "longitude": "8.1968",
      "total_capacity": 235,
      "reserved_capacity": 214
    },
    {
      "store_name": "Ubersmart di Minervino Murge",
      "chain_name": "Ubersmart",
      "country": "Italy",
      "city": "Minervino Murge",
      "address": "Corso Umberto II 40 ",
      "latitude": "41.08918939",
      "longitude": "16.07966576",
      "total_capacity": 108,
      "reserved_capacity": 100
    },
    {
      "store_name": "Ikao di Domus de Maria",
      "chain_name": "Ikao",
      "country": "Italy",
      "city": "Domus de Maria",
      "address": "Largo Palermo 15 ",
      "latitude": "38.94586977",
      "longitude": "8.86371992",
      "total_capacity": 197,
      "reserved_capacity": 173
    },
    {
      "store_name": "Megamercato di Esterzili",
      "chain_name": "Megamercato",
      "country": "Italy",
      "city": "Esterzili",
      "address": "Via Fucini 124 ",
      "latitude": "39.78062365",
      "longitude": "9.285227",
      "total_capacity": 73,
      "reserved_capacity": 63
    },
    {
      "store_name": "Ikao di Giba",
      "chain_name": "Ikao",
      "country": "Italy",
      "city": "Giba",
      "address": "Corso Palermo 158 ",
      "latitude": "39.07133666",
      "longitude": "8.63608564",
      "total_capacity": 155,
      "reserved_capacity": 134
    },
    {
      "store_name": "Wallmars di Perdaxius",
      "chain_name": "Wallmars",
      "country": "Italy",
      "city": "Perdaxius",
      "address": "Via Salerno 2 ",
      "latitude": "39.16149264",
      "longitude": "8.60998838",
      "total_capacity": 236,
      "reserved_capacity": 194
    }
  ],
  "users": [
    {
      "name": "Sara Bianchi",
      "email": "operator1@CLup.com",
      "password": "operator1@CLup.com",
      "clup_role": "OPERATOR",
      "store_id": 1
    },
    {
      "name": "Dario Verdi",
      "email": "operator2@CLup.com",
      "password": "operator2@CLup.com",
      "clup_role": "OPERATOR",
      "store_id": 2
    },
    {
      "name": "Giovanni Bianchi",
      "email": "operator3@CLup.com",
      "password": "operator3@CLup.com",
      "clup_role": "OPERATOR",
      "store_id": 3
    },
    {
      "name": "Giovanna Rossi",
      "email": "operator4@CLup.com",
      "password": "operator4@CLup.com",
      "clup_role": "OPERATOR",
      "store_id": 4
    },
    {
      "name": "Adriano Bianchi",
      "email": "operator5@CLup.com",
      "password": "operator5@CLup.com",
      "clup_role": "OPERATOR",
      "store_id": 5
    },
    {
      "name": "Luca Bianchi",
      "email": "operator6@CLup.com",
      "password": "operator6@CLup.com",
      "clup_role": "OPERATOR",
      "store_id": 6
    },
    {
      "name": "Adriano Rossi",
      "email": "operator7@CLup.com",
      "password": "operator7@CLup.com",
      "clup_role": "OPERATOR",
      "store_id": 7
    },
    {
      "name": "Adriano Bianchi",
      "email": "operator8@CLup.com",
      "password": "operator8@CLup.com",
      "clup_role": "OPERATOR",
      "store_id": 8
    },
    {
      "name": "Giovanni Bianchi",
      "email": "operator9@CLup.com",
      "password": "operator9@CLup.com",
      "clup_role": "OPERATOR",
      "store_id": 9
    },
    {
      "name": "Sara Verdi",
      "email": "operator10@CLup.com",
      "password": "operator10@CLup.com",
      "clup_role": "OPERATOR",
      "store_id": 10
    },
    {
      "name": "Sara Rossi",
      "email": "operator11@CLup.com",
      "password": "operator11@CLup.com",
      "clup_role": "OPERATOR",
      "store_id": 11
    },
    {
      "name": "Luca Rossi",
      "email": "operator12@CLup.com",
      "password": "operator12@CLup.com",
      "clup_role": "OPERATOR",
      "store_id": 12
    },
    {
      "name": "Adriano Bianchi",
      "email": "operator13@CLup.com",
      "password": "operator13@CLup.com",
      "clup_role": "OPERATOR",
      "store_id": 13
    },
    {
      "name": "Sara Verdi",
      "email": "operator14@CLup.com",
      "password": "operator14@CLup.com",
      "clup_role": "OPERATOR",
      "store_id": 14
    },
    {
      "name": "Giovanni Rossi",
      "email": "operator15@CLup.com",
      "password": "operator15@CLup.com",
      "clup_role": "OPERATOR",
      "store_id": 15
    },
    {
      "name": "Adriano Bianchi",
      "email": "operator16@CLup.com",
      "password": "operator16@CLup.com",
      "clup_role": "OPERATOR",
      "store_id": 16
    },
    {
      "name": "Adriano Bianchi",
      "email": "operator17@CLup.com",
      "password": "operator17@CLup.com",
      "clup_role": "OPERATOR",
      "store_id": 17
    },
    {
      "name": "Adriano Bianchi",
      "email": "operator18@CLup.com",
      "password": "operator18@CLup.com",
      "clup_role": "OPERATOR",
      "store_id": 18
    },
    {
      "name": "Matteo Verdi",
      "email": "operator19@CLup.com",
      "password": "operator19@CLup.com",
      "clup_role": "OPERATOR",
      "store_id": 19
    },
    {
      "name": "Dario Rossi",
      "email": "operator20@CLup.com",
      "password": "operator20@CLup.com",
      "clup_role": "OPERATOR",
      "store_id": 20
    },
    {
      "name": "Giovanni Bianchi",
      "email": "operator21@CLup.com",
      "password": "operator21@CLup.com",
      "clup_role": "OPERATOR",
      "store_id": 21
    },
    {
      "name": "Giovanni Verdi",
      "email": "operator22@CLup.com",
      "password": "operator22@CLup.com",
      "clup_role": "OPERATOR",
      "store_id": 22
    },
    {
      "name": "Adriano Verdi",
      "email": "operator23@CLup.com",
      "password": "operator23@CLup.com",
      "clup_role": "OPERATOR",
      "store_id": 23
    },
    {
      "name": "Giovanna Bianchi",
      "email": "operator24@CLup.com",
      "password": "operator24@CLup.com",
      "clup_role": "OPERATOR",
      "store_id": 24
    },
    {
      "name": "Davide Rossi",
      "email": "operator25@CLup.com",
      "password": "operator25@CLup.com",
      "clup_role": "OPERATOR",
      "store_id": 25
    },
    {
      "name": "Giovanni Bianchi",
      "email": "operator26@CLup.com",
      "password": "operator26@CLup.com",
      "clup_role": "OPERATOR",
      "store_id": 26
    },
    {
      "name": "Matteo Verdi",
      "email": "operator27@CLup.com",
      "password": "operator27@CLup.com",
      "clup_role": "OPERATOR",
      "store_id": 27
    },
    {
      "name": "Dario Rossi",
      "email": "operator28@CLup.com",
      "password": "operator28@CLup.com",
      "clup_role": "OPERATOR",
      "store_id": 28
    },
    {
      "name": "Marco Bianchi",
      "email": "operator29@CLup.com",
      "password": "operator29@CLup.com",
      "clup_role": "OPERATOR",
      "store_id": 29
    },
    {
      "name": "Marco Rossi",
      "email": "operator30@CLup.com",
      "password": "operator30@CLup.com",
      "clup_role": "OPERATOR",
      "store_id": 30
    },
    {
      "name": "Adriano Verdi",
      "email": "operator31@CLup.com",
      "password": "operator31@CLup.com",
      "clup_role": "OPERATOR",
      "store_id": 31
    },
    {
      "name": "Giovanna Rossi",
      "email": "operator32@CLup.com",
      "password": "operator32@CLup.com",
      "clup_role": "OPERATOR",
      "store_id": 32
    },
    {
      "name": "Luca Rossi",
      "email": "operator33@CLup.com",
      "password": "operator33@CLup.com",
      "clup_role": "OPERATOR",
      "store_id": 33
    },
    {
      "name": "Davide Bianchi",
      "email": "operator34@CLup.com",
      "password": "operator34@CLup.com",
      "clup_role": "OPERATOR",
      "store_id": 34
    },
    {
      "name": "Adriano Rossi",
      "email": "operator35@CLup.com",
      "password": "operator35@CLup.com",
      "clup_role": "OPERATOR",
      "store_id": 35
    },
    {
      "name": "Giovanna Rossi",
      "email": "operator36@CLup.com",
      "password": "operator36@CLup.com",
      "clup_role": "OPERATOR",
      "store_id": 36
    },
    {
      "name": "Adriano Rossi",
      "email": "operator37@CLup.com",
      "password": "operator37@CLup.com",
      "clup_role": "OPERATOR",
      "store_id": 37
    },
    {
      "name": "Dario Verdi",
      "email": "operator38@CLup.com",
      "password": "operator38@CLup.com",
      "clup_role": "OPERATOR",
      "store_id": 38
    },
    {
      "name": "Davide Rossi",
      "email": "operator39@CLup.com",
      "password": "operator39@CLup.com",
      "clup_role": "OPERATOR",
      "store_id": 39
    },
    {
      "name": "Matteo Bianchi",
      "email": "operator40@CLup.com",
      "password": "operator40@CLup.com",
      "clup_role": "OPERATOR",
      "store_id": 40
    },
    {
      "name": "Matteo Rossi",
      "email": "operator41@CLup.com",
      "password": "operator41@CLup.com",
      "clup_role": "OPERATOR",
      "store_id": 41
    },
    {
      "name": "Sara Verdi",
      "email": "operator42@CLup.com",
      "password": "operator42@CLup.com",
      "clup_role": "OPERATOR",
      "store_id": 42
    },
    {
      "name": "Sara Bianchi",
      "email": "operator43@CLup.com",
      "password": "operator43@CLup.com",
      "clup_role": "OPERATOR",
      "store_id": 43
    },
    {
      "name": "Giovanna Verdi",
      "email": "operator44@CLup.com",
      "password": "operator44@CLup.com",
      "clup_role": "OPERATOR",
      "store_id": 44
    },
    {
      "name": "Davide Bianchi",
      "email": "operator45@CLup.com",
      "password": "operator45@CLup.com",
      "clup_role": "OPERATOR",
      "store_id": 45
    },
    {
      "name": "Adriano Verdi",
      "email": "operator46@CLup.com",
      "password": "operator46@CLup.com",
      "clup_role": "OPERATOR",
      "store_id": 46
    },
    {
      "name": "Matteo Verdi",
      "email": "operator47@CLup.com",
      "password": "operator47@CLup.com",
      "clup_role": "OPERATOR",
      "store_id": 47
    },
    {
      "name": "Davide Bianchi",
      "email": "operator48@CLup.com",
      "password": "operator48@CLup.com",
      "clup_role": "OPERATOR",
      "store_id": 48
    },
    {
      "name": "Luca Rossi",
      "email": "operator49@CLup.com",
      "password": "operator49@CLup.com",
      "clup_role": "OPERATOR",
      "store_id": 49
    },
    {
      "name": "Matteo Verdi",
      "email": "operator50@CLup.com",
      "password": "operator50@CLup.com",
      "clup_role": "OPERATOR",
      "store_id": 50
    },
    {
      "name": "Giovanni Rossi",
      "email": "operator51@CLup.com",
      "password": "operator51@CLup.com",
      "clup_role": "OPERATOR",
      "store_id": 51
    },
    {
      "name": "Giovanna Verdi",
      "email": "operator52@CLup.com",
      "password": "operator52@CLup.com",
      "clup_role": "OPERATOR",
      "store_id": 52
    },
    {
      "name": "Luca Bianchi",
      "email": "operator53@CLup.com",
      "password": "operator53@CLup.com",
      "clup_role": "OPERATOR",
      "store_id": 53
    },
    {
      "name": "Luca Verdi",
      "email": "operator54@CLup.com",
      "password": "operator54@CLup.com",
      "clup_role": "OPERATOR",
      "store_id": 54
    },
    {
      "name": "Giovanna Verdi",
      "email": "operator55@CLup.com",
      "password": "operator55@CLup.com",
      "clup_role": "OPERATOR",
      "store_id": 55
    },
    {
      "name": "Matteo Rossi",
      "email": "operator56@CLup.com",
      "password": "operator56@CLup.com",
      "clup_role": "OPERATOR",
      "store_id": 56
    },
    {
      "name": "Marco Bianchi",
      "email": "operator57@CLup.com",
      "password": "operator57@CLup.com",
      "clup_role": "OPERATOR",
      "store_id": 57
    },
    {
      "name": "Giovanni Rossi",
      "email": "operator58@CLup.com",
      "password": "operator58@CLup.com",
      "clup_role": "OPERATOR",
      "store_id": 58
    },
    {
      "name": "Giovanna Bianchi",
      "email": "operator59@CLup.com",
      "password": "operator59@CLup.com",
      "clup_role": "OPERATOR",
      "store_id": 59
    },
    {
      "name": "Adriano Bianchi",
      "email": "operator60@CLup.com",
      "password": "operator60@CLup.com",
      "clup_role": "OPERATOR",
      "store_id": 60
    },
    {
      "name": "Giovanna Bianchi",
      "email": "operator61@CLup.com",
      "password": "operator61@CLup.com",
      "clup_role": "OPERATOR",
      "store_id": 61
    },
    {
      "name": "Sara Bianchi",
      "email": "operator62@CLup.com",
      "password": "operator62@CLup.com",
      "clup_role": "OPERATOR",
      "store_id": 62
    },
    {
      "name": "Matteo Verdi",
      "email": "operator63@CLup.com",
      "password": "operator63@CLup.com",
      "clup_role": "OPERATOR",
      "store_id": 63
    },
    {
      "name": "Davide Bianchi",
      "email": "operator64@CLup.com",
      "password": "operator64@CLup.com",
      "clup_role": "OPERATOR",
      "store_id": 64
    },
    {
      "name": "Luca Verdi",
      "email": "operator65@CLup.com",
      "password": "operator65@CLup.com",
      "clup_role": "OPERATOR",
      "store_id": 65
    },
    {
      "name": "Giovanni Bianchi",
      "email": "operator66@CLup.com",
      "password": "operator66@CLup.com",
      "clup_role": "OPERATOR",
      "store_id": 66
    },
    {
      "name": "Sara Verdi",
      "email": "operator67@CLup.com",
      "password": "operator67@CLup.com",
      "clup_role": "OPERATOR",
      "store_id": 67
    },
    {
      "name": "Adriano Verdi",
      "email": "operator68@CLup.com",
      "password": "operator68@CLup.com",
      "clup_role": "OPERATOR",
      "store_id": 68
    },
    {
      "name": "Sara Verdi",
      "email": "operator69@CLup.com",
      "password": "operator69@CLup.com",
      "clup_role": "OPERATOR",
      "store_id": 69
    },
    {
      "name": "Sara Bianchi",
      "email": "operator70@CLup.com",
      "password": "operator70@CLup.com",
      "clup_role": "OPERATOR",
      "store_id": 70
    },
    {
      "name": "Adriano Verdi",
      "email": "operator71@CLup.com",
      "password": "operator71@CLup.com",
      "clup_role": "OPERATOR",
      "store_id": 71
    },
    {
      "name": "Dario Rossi",
      "email": "operator72@CLup.com",
      "password": "operator72@CLup.com",
      "clup_role": "OPERATOR",
      "store_id": 72
    },
    {
      "name": "Davide Rossi",
      "email": "operator73@CLup.com",
      "password": "operator73@CLup.com",
      "clup_role": "OPERATOR",
      "store_id": 73
    },
    {
      "name": "Marco Verdi",
      "email": "operator74@CLup.com",
      "password": "operator74@CLup.com",
      "clup_role": "OPERATOR",
      "store_id": 74
    },
    {
      "name": "Marco Verdi",
      "email": "operator75@CLup.com",
      "password": "operator75@CLup.com",
      "clup_role": "OPERATOR",
      "store_id": 75
    },
    {
      "name": "Adriano Rossi",
      "email": "operator76@CLup.com",
      "password": "operator76@CLup.com",
      "clup_role": "OPERATOR",
      "store_id": 76
    },
    {
      "name": "Matteo Rossi",
      "email": "operator77@CLup.com",
      "password": "operator77@CLup.com",
      "clup_role": "OPERATOR",
      "store_id": 77
    },
    {
      "name": "Adriano Bianchi",
      "email": "operator78@CLup.com",
      "password": "operator78@CLup.com",
      "clup_role": "OPERATOR",
      "store_id": 78
    },
    {
      "name": "Giovanni Rossi",
      "email": "operator79@CLup.com",
      "password": "operator79@CLup.com",
      "clup_role": "OPERATOR",
      "store_id": 79
    },
    {
      "name": "Adriano Bianchi",
      "email": "operator80@CLup.com",
      "password": "operator80@CLup.com",
      "clup_role": "OPERATOR",
      "store_id": 80
    },
    {
      "name": "Sara Rossi",
      "email": "operator81@CLup.com",
      "password": "operator81@CLup.com",
      "clup_role": "OPERATOR",
      "store_id": 81
    },
    {
      "name": "Adriano Rossi",
      "email": "operator82@CLup.com",
      "password": "operator82@CLup.com",
      "clup_role": "OPERATOR",
      "store_id": 82
    },
    {
      "name": "Giovanna Verdi",
      "email": "operator83@CLup.com",
      "password": "operator83@CLup.com",
      "clup_role": "OPERATOR",
      "store_id": 83
    },
    {
      "name": "Sara Rossi",
      "email": "operator84@CLup.com",
      "password": "operator84@CLup.com",
      "clup_role": "OPERATOR",
      "store_id": 84
    },
    {
      "name": "Marco Bianchi",
      "email": "operator85@CLup.com",
      "password": "operator85@CLup.com",
      "clup_role": "OPERATOR",
      "store_id": 85
    },
    {
      "name": "Davide Rossi",
      "email": "operator86@CLup.com",
      "password": "operator86@CLup.com",
      "clup_role": "OPERATOR",
      "store_id": 86
    },
    {
      "name": "Sara Verdi",
      "email": "operator87@CLup.com",
      "password": "operator87@CLup.com",
      "clup_role": "OPERATOR",
      "store_id": 87
    },
    {
      "name": "Marco Bianchi",
      "email": "operator88@CLup.com",
      "password": "operator88@CLup.com",
      "clup_role": "OPERATOR",
      "store_id": 88
    },
    {
      "name": "Sara Verdi",
      "email": "operator89@CLup.com",
      "password": "operator89@CLup.com",
      "clup_role": "OPERATOR",
      "store_id": 89
    },
    {
      "name": "Marco Bianchi",
      "email": "operator90@CLup.com",
      "password": "operator90@CLup.com",
      "clup_role": "OPERATOR",
      "store_id": 90
    },
    {
      "name": "Luca Rossi",
      "email": "operator91@CLup.com",
      "password": "operator91@CLup.com",
      "clup_role": "OPERATOR",
      "store_id": 91
    },
    {
      "name": "Luca Bianchi",
      "email": "operator92@CLup.com",
      "password": "operator92@CLup.com",
      "clup_role": "OPERATOR",
      "store_id": 92
    },
    {
      "name": "Adriano Bianchi",
      "email": "operator93@CLup.com",
      "password": "operator93@CLup.com",
      "clup_role": "OPERATOR",
      "store_id": 93
    },
    {
      "name": "Sara Bianchi",
      "email": "operator94@CLup.com",
      "password": "operator94@CLup.com",
      "clup_role": "OPERATOR",
      "store_id": 94
    },
    {
      "name": "Luca Verdi",
      "email": "operator95@CLup.com",
      "password": "operator95@CLup.com",
      "clup_role": "OPERATOR",
      "store_id": 95
    },
    {
      "name": "Sara Verdi",
      "email": "operator96@CLup.com",
      "password": "operator96@CLup.com",
      "clup_role": "OPERATOR",
      "store_id": 96
    },
    {
      "name": "Sara Bianchi",
      "email": "operator97@CLup.com",
      "password": "operator97@CLup.com",
      "clup_role": "OPERATOR",
      "store_id": 97
    },
    {
      "name": "Marco Rossi",
      "email": "operator98@CLup.com",
      "password": "operator98@CLup.com",
      "clup_role": "OPERATOR",
      "store_id": 98
    },
    {
      "name": "Luca Rossi",
      "email": "operator99@CLup.com",
      "password": "operator99@CLup.com",
      "clup_role": "OPERATOR",
      "store_id": 99
    },
    {
      "name": "Sara Verdi",
      "email": "operator100@CLup.com",
      "password": "operator100@CLup.com",
      "clup_role": "OPERATOR",
      "store_id": 100
    },
    {
      "name": "Giovanna Verdi",
      "email": "operator101@CLup.com",
      "password": "operator101@CLup.com",
      "clup_role": "OPERATOR",
      "store_id": 101
    },
    {
      "name": "Dario Bianchi",
      "email": "operator102@CLup.com",
      "password": "operator102@CLup.com",
      "clup_role": "OPERATOR",
      "store_id": 102
    },
    {
      "name": "Dario Rossi",
      "email": "operator103@CLup.com",
      "password": "operator103@CLup.com",
      "clup_role": "OPERATOR",
      "store_id": 103
    },
    {
      "name": "Giovanni Verdi",
      "email": "operator104@CLup.com",
      "password": "operator104@CLup.com",
      "clup_role": "OPERATOR",
      "store_id": 104
    },
    {
      "name": "Giovanni Verdi",
      "email": "operator105@CLup.com",
      "password": "operator105@CLup.com",
      "clup_role": "OPERATOR",
      "store_id": 105
    },
    {
      "name": "Luca Rossi",
      "email": "operator106@CLup.com",
      "password": "operator106@CLup.com",
      "clup_role": "OPERATOR",
      "store_id": 106
    },
    {
      "name": "Giovanna Rossi",
      "email": "operator107@CLup.com",
      "password": "operator107@CLup.com",
      "clup_role": "OPERATOR",
      "store_id": 107
    },
    {
      "name": "Davide Rossi",
      "email": "operator108@CLup.com",
      "password": "operator108@CLup.com",
      "clup_role": "OPERATOR",
      "store_id": 108
    },
    {
      "name": "Sara Verdi",
      "email": "operator109@CLup.com",
      "password": "operator109@CLup.com",
      "clup_role": "OPERATOR",
      "store_id": 109
    },
    {
      "name": "Luca Bianchi",
      "email": "operator110@CLup.com",
      "password": "operator110@CLup.com",
      "clup_role": "OPERATOR",
      "store_id": 110
    },
    {
      "name": "Luca Verdi",
      "email": "operator111@CLup.com",
      "password": "operator111@CLup.com",
      "clup_role": "OPERATOR",
      "store_id": 111
    },
    {
      "name": "Giovanni Bianchi",
      "email": "operator112@CLup.com",
      "password": "operator112@CLup.com",
      "clup_role": "OPERATOR",
      "store_id": 112
    },
    {
      "name": "Davide Rossi",
      "email": "operator113@CLup.com",
      "password": "operator113@CLup.com",
      "clup_role": "OPERATOR",
      "store_id": 113
    },
    {
      "name": "Giovanna Rossi",
      "email": "operator114@CLup.com",
      "password": "operator114@CLup.com",
      "clup_role": "OPERATOR",
      "store_id": 114
    },
    {
      "name": "Giovanna Verdi",
      "email": "operator115@CLup.com",
      "password": "operator115@CLup.com",
      "clup_role": "OPERATOR",
      "store_id": 115
    },
    {
      "name": "Marco Bianchi",
      "email": "operator116@CLup.com",
      "password": "operator116@CLup.com",
      "clup_role": "OPERATOR",
      "store_id": 116
    },
    {
      "name": "Adriano Verdi",
      "email": "operator117@CLup.com",
      "password": "operator117@CLup.com",
      "clup_role": "OPERATOR",
      "store_id": 117
    },
    {
      "name": "Davide Verdi",
      "email": "operator118@CLup.com",
      "password": "operator118@CLup.com",
      "clup_role": "OPERATOR",
      "store_id": 118
    },
    {
      "name": "Adriano Rossi",
      "email": "operator119@CLup.com",
      "password": "operator119@CLup.com",
      "clup_role": "OPERATOR",
      "store_id": 119
    },
    {
      "name": "Matteo Bianchi",
      "email": "operator120@CLup.com",
      "password": "operator120@CLup.com",
      "clup_role": "OPERATOR",
      "store_id": 120
    },
    {
      "name": "Giovanni Rossi",
      "email": "operator121@CLup.com",
      "password": "operator121@CLup.com",
      "clup_role": "OPERATOR",
      "store_id": 121
    },
    {
      "name": "Adriano Verdi",
      "email": "operator122@CLup.com",
      "password": "operator122@CLup.com",
      "clup_role": "OPERATOR",
      "store_id": 122
    },
    {
      "name": "Matteo Bianchi",
      "email": "operator123@CLup.com",
      "password": "operator123@CLup.com",
      "clup_role": "OPERATOR",
      "store_id": 123
    },
    {
      "name": "Adriano Rossi",
      "email": "operator124@CLup.com",
      "password": "operator124@CLup.com",
      "clup_role": "OPERATOR",
      "store_id": 124
    },
    {
      "name": "Davide Verdi",
      "email": "operator125@CLup.com",
      "password": "operator125@CLup.com",
      "clup_role": "OPERATOR",
      "store_id": 125
    },
    {
      "name": "Giovanni Bianchi",
      "email": "operator126@CLup.com",
      "password": "operator126@CLup.com",
      "clup_role": "OPERATOR",
      "store_id": 126
    },
    {
      "name": "Matteo Bianchi",
      "email": "operator127@CLup.com",
      "password": "operator127@CLup.com",
      "clup_role": "OPERATOR",
      "store_id": 127
    },
    {
      "name": "Luca Bianchi",
      "email": "operator128@CLup.com",
      "password": "operator128@CLup.com",
      "clup_role": "OPERATOR",
      "store_id": 128
    },
    {
      "name": "Luca Verdi",
      "email": "operator129@CLup.com",
      "password": "operator129@CLup.com",
      "clup_role": "OPERATOR",
      "store_id": 129
    },
    {
      "name": "Giovanna Rossi",
      "email": "operator130@CLup.com",
      "password": "operator130@CLup.com",
      "clup_role": "OPERATOR",
      "store_id": 130
    },
    {
      "name": "Dario Rossi",
      "email": "operator131@CLup.com",
      "password": "operator131@CLup.com",
      "clup_role": "OPERATOR",
      "store_id": 131
    },
    {
      "name": "Sara Rossi",
      "email": "operator132@CLup.com",
      "password": "operator132@CLup.com",
      "clup_role": "OPERATOR",
      "store_id": 132
    },
    {
      "name": "Giovanni Verdi",
      "email": "operator133@CLup.com",
      "password": "operator133@CLup.com",
      "clup_role": "OPERATOR",
      "store_id": 133
    },
    {
      "name": "Giovanna Rossi",
      "email": "operator134@CLup.com",
      "password": "operator134@CLup.com",
      "clup_role": "OPERATOR",
      "store_id": 134
    },
    {
      "name": "Luca Bianchi",
      "email": "operator135@CLup.com",
      "password": "operator135@CLup.com",
      "clup_role": "OPERATOR",
      "store_id": 135
    },
    {
      "name": "Giovanna Rossi",
      "email": "operator136@CLup.com",
      "password": "operator136@CLup.com",
      "clup_role": "OPERATOR",
      "store_id": 136
    },
    {
      "name": "Davide Verdi",
      "email": "operator137@CLup.com",
      "password": "operator137@CLup.com",
      "clup_role": "OPERATOR",
      "store_id": 137
    },
    {
      "name": "Dario Bianchi",
      "email": "operator138@CLup.com",
      "password": "operator138@CLup.com",
      "clup_role": "OPERATOR",
      "store_id": 138
    },
    {
      "name": "Adriano Verdi",
      "email": "operator139@CLup.com",
      "password": "operator139@CLup.com",
      "clup_role": "OPERATOR",
      "store_id": 139
    },
    {
      "name": "Davide Bianchi",
      "email": "operator140@CLup.com",
      "password": "operator140@CLup.com",
      "clup_role": "OPERATOR",
      "store_id": 140
    },
    {
      "name": "Dario Bianchi",
      "email": "operator141@CLup.com",
      "password": "operator141@CLup.com",
      "clup_role": "OPERATOR",
      "store_id": 141
    },
    {
      "name": "Dario Rossi",
      "email": "operator142@CLup.com",
      "password": "operator142@CLup.com",
      "clup_role": "OPERATOR",
      "store_id": 142
    },
    {
      "name": "Adriano Verdi",
      "email": "operator143@CLup.com",
      "password": "operator143@CLup.com",
      "clup_role": "OPERATOR",
      "store_id": 143
    },
    {
      "name": "Dario Bianchi",
      "email": "operator144@CLup.com",
      "password": "operator144@CLup.com",
      "clup_role": "OPERATOR",
      "store_id": 144
    },
    {
      "name": "Dario Rossi",
      "email": "operator145@CLup.com",
      "password": "operator145@CLup.com",
      "clup_role": "OPERATOR",
      "store_id": 145
    },
    {
      "name": "Marco Verdi",
      "email": "operator146@CLup.com",
      "password": "operator146@CLup.com",
      "clup_role": "OPERATOR",
      "store_id": 146
    },
    {
      "name": "Dario Rossi",
      "email": "operator147@CLup.com",
      "password": "operator147@CLup.com",
      "clup_role": "OPERATOR",
      "store_id": 147
    },
    {
      "name": "Matteo Verdi",
      "email": "operator148@CLup.com",
      "password": "operator148@CLup.com",
      "clup_role": "OPERATOR",
      "store_id": 148
    },
    {
      "name": "Sara Verdi",
      "email": "operator149@CLup.com",
      "password": "operator149@CLup.com",
      "clup_role": "OPERATOR",
      "store_id": 149
    },
    {
      "name": "Giovanna Verdi",
      "email": "operator150@CLup.com",
      "password": "operator150@CLup.com",
      "clup_role": "OPERATOR",
      "store_id": 150
    },
    {
      "name": "Luca Verdi",
      "email": "operator151@CLup.com",
      "password": "operator151@CLup.com",
      "clup_role": "OPERATOR",
      "store_id": 151
    },
    {
      "name": "Giovanna Rossi",
      "email": "operator152@CLup.com",
      "password": "operator152@CLup.com",
      "clup_role": "OPERATOR",
      "store_id": 152
    },
    {
      "name": "Davide Bianchi",
      "email": "operator153@CLup.com",
      "password": "operator153@CLup.com",
      "clup_role": "OPERATOR",
      "store_id": 153
    },
    {
      "name": "Matteo Verdi",
      "email": "operator154@CLup.com",
      "password": "operator154@CLup.com",
      "clup_role": "OPERATOR",
      "store_id": 154
    },
    {
      "name": "Davide Bianchi",
      "email": "operator155@CLup.com",
      "password": "operator155@CLup.com",
      "clup_role": "OPERATOR",
      "store_id": 155
    },
    {
      "name": "Adriano Bianchi",
      "email": "operator156@CLup.com",
      "password": "operator156@CLup.com",
      "clup_role": "OPERATOR",
      "store_id": 156
    },
    {
      "name": "Adriano Rossi",
      "email": "operator157@CLup.com",
      "password": "operator157@CLup.com",
      "clup_role": "OPERATOR",
      "store_id": 157
    },
    {
      "name": "Luca Rossi",
      "email": "operator158@CLup.com",
      "password": "operator158@CLup.com",
      "clup_role": "OPERATOR",
      "store_id": 158
    },
    {
      "name": "Dario Verdi",
      "email": "operator159@CLup.com",
      "password": "operator159@CLup.com",
      "clup_role": "OPERATOR",
      "store_id": 159
    },
    {
      "name": "Marco Verdi",
      "email": "operator160@CLup.com",
      "password": "operator160@CLup.com",
      "clup_role": "OPERATOR",
      "store_id": 160
    },
    {
      "name": "Giovanni Bianchi",
      "email": "operator161@CLup.com",
      "password": "operator161@CLup.com",
      "clup_role": "OPERATOR",
      "store_id": 161
    },
    {
      "name": "Adriano Rossi",
      "email": "operator162@CLup.com",
      "password": "operator162@CLup.com",
      "clup_role": "OPERATOR",
      "store_id": 162
    },
    {
      "name": "Giovanni Verdi",
      "email": "operator163@CLup.com",
      "password": "operator163@CLup.com",
      "clup_role": "OPERATOR",
      "store_id": 163
    },
    {
      "name": "Giovanna Verdi",
      "email": "operator164@CLup.com",
      "password": "operator164@CLup.com",
      "clup_role": "OPERATOR",
      "store_id": 164
    },
    {
      "name": "Matteo Verdi",
      "email": "operator165@CLup.com",
      "password": "operator165@CLup.com",
      "clup_role": "OPERATOR",
      "store_id": 165
    },
    {
      "name": "Dario Verdi",
      "email": "operator166@CLup.com",
      "password": "operator166@CLup.com",
      "clup_role": "OPERATOR",
      "store_id": 166
    },
    {
      "name": "Sara Rossi",
      "email": "operator167@CLup.com",
      "password": "operator167@CLup.com",
      "clup_role": "OPERATOR",
      "store_id": 167
    },
    {
      "name": "Marco Rossi",
      "email": "operator168@CLup.com",
      "password": "operator168@CLup.com",
      "clup_role": "OPERATOR",
      "store_id": 168
    },
    {
      "name": "Luca Rossi",
      "email": "operator169@CLup.com",
      "password": "operator169@CLup.com",
      "clup_role": "OPERATOR",
      "store_id": 169
    },
    {
      "name": "Luca Verdi",
      "email": "operator170@CLup.com",
      "password": "operator170@CLup.com",
      "clup_role": "OPERATOR",
      "store_id": 170
    },
    {
      "name": "Adriano Verdi",
      "email": "operator171@CLup.com",
      "password": "operator171@CLup.com",
      "clup_role": "OPERATOR",
      "store_id": 171
    },
    {
      "name": "Giovanni Bianchi",
      "email": "operator172@CLup.com",
      "password": "operator172@CLup.com",
      "clup_role": "OPERATOR",
      "store_id": 172
    },
    {
      "name": "Matteo Rossi",
      "email": "operator173@CLup.com",
      "password": "operator173@CLup.com",
      "clup_role": "OPERATOR",
      "store_id": 173
    },
    {
      "name": "Giovanna Rossi",
      "email": "operator174@CLup.com",
      "password": "operator174@CLup.com",
      "clup_role": "OPERATOR",
      "store_id": 174
    },
    {
      "name": "Matteo Bianchi",
      "email": "operator175@CLup.com",
      "password": "operator175@CLup.com",
      "clup_role": "OPERATOR",
      "store_id": 175
    },
    {
      "name": "Adriano Bianchi",
      "email": "operator176@CLup.com",
      "password": "operator176@CLup.com",
      "clup_role": "OPERATOR",
      "store_id": 176
    },
    {
      "name": "Sara Verdi",
      "email": "operator177@CLup.com",
      "password": "operator177@CLup.com",
      "clup_role": "OPERATOR",
      "store_id": 177
    },
    {
      "name": "Marco Rossi",
      "email": "operator178@CLup.com",
      "password": "operator178@CLup.com",
      "clup_role": "OPERATOR",
      "store_id": 178
    },
    {
      "name": "Matteo Rossi",
      "email": "operator179@CLup.com",
      "password": "operator179@CLup.com",
      "clup_role": "OPERATOR",
      "store_id": 179
    },
    {
      "name": "Adriano Verdi",
      "email": "operator180@CLup.com",
      "password": "operator180@CLup.com",
      "clup_role": "OPERATOR",
      "store_id": 180
    },
    {
      "name": "Matteo Rossi",
      "email": "operator181@CLup.com",
      "password": "operator181@CLup.com",
      "clup_role": "OPERATOR",
      "store_id": 181
    },
    {
      "name": "Matteo Verdi",
      "email": "operator182@CLup.com",
      "password": "operator182@CLup.com",
      "clup_role": "OPERATOR",
      "store_id": 182
    },
    {
      "name": "Marco Verdi",
      "email": "operator183@CLup.com",
      "password": "operator183@CLup.com",
      "clup_role": "OPERATOR",
      "store_id": 183
    },
    {
      "name": "Giovanni Rossi",
      "email": "operator184@CLup.com",
      "password": "operator184@CLup.com",
      "clup_role": "OPERATOR",
      "store_id": 184
    },
    {
      "name": "Matteo Rossi",
      "email": "customer1@clup.com",
      "password": "customer1@clup.com",
      "clup_role": "USER",
      "store_id": null
    },
    {
      "name": "Sara Bianchi",
      "email": "customer2@clup.com",
      "password": "customer2@clup.com",
      "clup_role": "USER",
      "store_id": null
    },
    {
      "name": "Adriano Bianchi",
      "email": "customer3@clup.com",
      "password": "customer3@clup.com",
      "clup_role": "USER",
      "store_id": null
    },
    {
      "name": "Giovanna Verdi",
      "email": "customer4@clup.com",
      "password": "customer4@clup.com",
      "clup_role": "USER",
      "store_id": null
    },
    {
      "name": "Dario Bianchi",
      "email": "customer5@clup.com",
      "password": "customer5@clup.com",
      "clup_role": "USER",
      "store_id": null
    },
    {
      "name": "Adriano Verdi",
      "email": "customer6@clup.com",
      "password": "customer6@clup.com",
      "clup_role": "USER",
      "store_id": null
    },
    {
      "name": "Luca Rossi",
      "email": "customer7@clup.com",
      "password": "customer7@clup.com",
      "clup_role": "USER",
      "store_id": null
    },
    {
      "name": "Giovanna Rossi",
      "email": "customer8@clup.com",
      "password": "customer8@clup.com",
      "clup_role": "USER",
      "store_id": null
    },
    {
      "name": "Giovanni Bianchi",
      "email": "customer9@clup.com",
      "password": "customer9@clup.com",
      "clup_role": "USER",
      "store_id": null
    },
    {
      "name": "Dario Bianchi",
      "email": "customer10@clup.com",
      "password": "customer10@clup.com",
      "clup_role": "USER",
      "store_id": null
    },
    {
      "name": "Giovanna Verdi",
      "email": "customer11@clup.com",
      "password": "customer11@clup.com",
      "clup_role": "USER",
      "store_id": null
    },
    {
      "name": "Matteo Bianchi",
      "email": "customer12@clup.com",
      "password": "customer12@clup.com",
      "clup_role": "USER",
      "store_id": null
    },
    {
      "name": "Matteo Bianchi",
      "email": "customer13@clup.com",
      "password": "customer13@clup.com",
      "clup_role": "USER",
      "store_id": null
    },
    {
      "name": "Davide Verdi",
      "email": "customer14@clup.com",
      "password": "customer14@clup.com",
      "clup_role": "USER",
      "store_id": null
    },
    {
      "name": "Matteo Verdi",
      "email": "customer15@clup.com",
      "password": "customer15@clup.com",
      "clup_role": "USER",
      "store_id": null
    },
    {
      "name": "Adriano Rossi",
      "email": "customer16@clup.com",
      "password": "customer16@clup.com",
      "clup_role": "USER",
      "store_id": null
    },
    {
      "name": "Luca Verdi",
      "email": "customer17@clup.com",
      "password": "customer17@clup.com",
      "clup_role": "USER",
      "store_id": null
    },
    {
      "name": "Sara Bianchi",
      "email": "customer18@clup.com",
      "password": "customer18@clup.com",
      "clup_role": "USER",
      "store_id": null
    },
    {
      "name": "Marco Rossi",
      "email": "customer19@clup.com",
      "password": "customer19@clup.com",
      "clup_role": "USER",
      "store_id": null
    },
    {
      "name": "Sara Rossi",
      "email": "customer20@clup.com",
      "password": "customer20@clup.com",
      "clup_role": "USER",
      "store_id": null
    },
    {
      "name": "Marco Bianchi",
      "email": "customer21@clup.com",
      "password": "customer21@clup.com",
      "clup_role": "USER",
      "store_id": null
    },
    {
      "name": "Sara Bianchi",
      "email": "customer22@clup.com",
      "password": "customer22@clup.com",
      "clup_role": "USER",
      "store_id": null
    },
    {
      "name": "Luca Rossi",
      "email": "customer23@clup.com",
      "password": "customer23@clup.com",
      "clup_role": "USER",
      "store_id": null
    },
    {
      "name": "Adriano Verdi",
      "email": "customer24@clup.com",
      "password": "customer24@clup.com",
      "clup_role": "USER",
      "store_id": null
    },
    {
      "name": "Giovanni Rossi",
      "email": "customer25@clup.com",
      "password": "customer25@clup.com",
      "clup_role": "USER",
      "store_id": null
    },
    {
      "name": "Giovanna Bianchi",
      "email": "customer26@clup.com",
      "password": "customer26@clup.com",
      "clup_role": "USER",
      "store_id": null
    },
    {
      "name": "Dario Bianchi",
      "email": "customer27@clup.com",
      "password": "customer27@clup.com",
      "clup_role": "USER",
      "store_id": null
    },
    {
      "name": "Luca Rossi",
      "email": "customer28@clup.com",
      "password": "customer28@clup.com",
      "clup_role": "USER",
      "store_id": null
    },
    {
      "name": "Dario Bianchi",
      "email": "customer29@clup.com",
      "password": "customer29@clup.com",
      "clup_role": "USER",
      "store_id": null
    },
    {
      "name": "Giovanna Rossi",
      "email": "customer30@clup.com",
      "password": "customer30@clup.com",
      "clup_role": "USER",
      "store_id": null
    },
    {
      "name": "Sara Bianchi",
      "email": "customer31@clup.com",
      "password": "customer31@clup.com",
      "clup_role": "USER",
      "store_id": null
    },
    {
      "name": "Giovanni Verdi",
      "email": "customer32@clup.com",
      "password": "customer32@clup.com",
      "clup_role": "USER",
      "store_id": null
    },
    {
      "name": "Adriano Bianchi",
      "email": "customer33@clup.com",
      "password": "customer33@clup.com",
      "clup_role": "USER",
      "store_id": null
    },
    {
      "name": "Adriano Rossi",
      "email": "customer34@clup.com",
      "password": "customer34@clup.com",
      "clup_role": "USER",
      "store_id": null
    },
    {
      "name": "Adriano Bianchi",
      "email": "customer35@clup.com",
      "password": "customer35@clup.com",
      "clup_role": "USER",
      "store_id": null
    },
    {
      "name": "Davide Bianchi",
      "email": "customer36@clup.com",
      "password": "customer36@clup.com",
      "clup_role": "USER",
      "store_id": null
    },
    {
      "name": "Giovanna Verdi",
      "email": "customer37@clup.com",
      "password": "customer37@clup.com",
      "clup_role": "USER",
      "store_id": null
    },
    {
      "name": "Adriano Verdi",
      "email": "customer38@clup.com",
      "password": "customer38@clup.com",
      "clup_role": "USER",
      "store_id": null
    },
    {
      "name": "Luca Rossi",
      "email": "customer39@clup.com",
      "password": "customer39@clup.com",
      "clup_role": "USER",
      "store_id": null
    },
    {
      "name": "Giovanna Rossi",
      "email": "customer40@clup.com",
      "password": "customer40@clup.com",
      "clup_role": "USER",
      "store_id": null
    },
    {
      "name": "Adriano Verdi",
      "email": "customer41@clup.com",
      "password": "customer41@clup.com",
      "clup_role": "USER",
      "store_id": null
    },
    {
      "name": "Davide Bianchi",
      "email": "customer42@clup.com",
      "password": "customer42@clup.com",
      "clup_role": "USER",
      "store_id": null
    },
    {
      "name": "Sara Bianchi",
      "email": "customer43@clup.com",
      "password": "customer43@clup.com",
      "clup_role": "USER",
      "store_id": null
    },
    {
      "name": "Davide Verdi",
      "email": "customer44@clup.com",
      "password": "customer44@clup.com",
      "clup_role": "USER",
      "store_id": null
    },
    {
      "name": "Giovanna Verdi",
      "email": "customer45@clup.com",
      "password": "customer45@clup.com",
      "clup_role": "USER",
      "store_id": null
    },
    {
      "name": "Giovanna Verdi",
      "email": "customer46@clup.com",
      "password": "customer46@clup.com",
      "clup_role": "USER",
      "store_id": null
    },
    {
      "name": "Sara Verdi",
      "email": "customer47@clup.com",
      "password": "customer47@clup.com",
      "clup_role": "USER",
      "store_id": null
    },
    {
      "name": "Giovanni Bianchi",
      "email": "customer48@clup.com",
      "password": "customer48@clup.com",
      "clup_role": "USER",
      "store_id": null
    },
    {
      "name": "Davide Bianchi",
      "email": "customer49@clup.com",
      "password": "customer49@clup.com",
      "clup_role": "USER",
      "store_id": null
    },
    {
      "name": "Matteo Verdi",
      "email": "customer50@clup.com",
      "password": "customer50@clup.com",
      "clup_role": "USER",
      "store_id": null
    },
    {
      "name": "Dario Bianchi",
      "email": "customer51@clup.com",
      "password": "customer51@clup.com",
      "clup_role": "USER",
      "store_id": null
    },
    {
      "name": "Luca Bianchi",
      "email": "customer52@clup.com",
      "password": "customer52@clup.com",
      "clup_role": "USER",
      "store_id": null
    },
    {
      "name": "Marco Rossi",
      "email": "customer53@clup.com",
      "password": "customer53@clup.com",
      "clup_role": "USER",
      "store_id": null
    },
    {
      "name": "Sara Rossi",
      "email": "customer54@clup.com",
      "password": "customer54@clup.com",
      "clup_role": "USER",
      "store_id": null
    },
    {
      "name": "Davide Verdi",
      "email": "customer55@clup.com",
      "password": "customer55@clup.com",
      "clup_role": "USER",
      "store_id": null
    },
    {
      "name": "Adriano Rossi",
      "email": "customer56@clup.com",
      "password": "customer56@clup.com",
      "clup_role": "USER",
      "store_id": null
    },
    {
      "name": "Giovanni Verdi",
      "email": "customer57@clup.com",
      "password": "customer57@clup.com",
      "clup_role": "USER",
      "store_id": null
    },
    {
      "name": "Giovanna Verdi",
      "email": "customer58@clup.com",
      "password": "customer58@clup.com",
      "clup_role": "USER",
      "store_id": null
    },
    {
      "name": "Giovanna Bianchi",
      "email": "customer59@clup.com",
      "password": "customer59@clup.com",
      "clup_role": "USER",
      "store_id": null
    },
    {
      "name": "Sara Bianchi",
      "email": "customer60@clup.com",
      "password": "customer60@clup.com",
      "clup_role": "USER",
      "store_id": null
    },
    {
      "name": "Marco Verdi",
      "email": "customer61@clup.com",
      "password": "customer61@clup.com",
      "clup_role": "USER",
      "store_id": null
    },
    {
      "name": "Sara Rossi",
      "email": "customer62@clup.com",
      "password": "customer62@clup.com",
      "clup_role": "USER",
      "store_id": null
    },
    {
      "name": "Matteo Bianchi",
      "email": "customer63@clup.com",
      "password": "customer63@clup.com",
      "clup_role": "USER",
      "store_id": null
    },
    {
      "name": "Luca Bianchi",
      "email": "customer64@clup.com",
      "password": "customer64@clup.com",
      "clup_role": "USER",
      "store_id": null
    },
    {
      "name": "Matteo Rossi",
      "email": "customer65@clup.com",
      "password": "customer65@clup.com",
      "clup_role": "USER",
      "store_id": null
    },
    {
      "name": "Matteo Bianchi",
      "email": "customer66@clup.com",
      "password": "customer66@clup.com",
      "clup_role": "USER",
      "store_id": null
    },
    {
      "name": "Luca Verdi",
      "email": "customer67@clup.com",
      "password": "customer67@clup.com",
      "clup_role": "USER",
      "store_id": null
    },
    {
      "name": "Davide Rossi",
      "email": "customer68@clup.com",
      "password": "customer68@clup.com",
      "clup_role": "USER",
      "store_id": null
    },
    {
      "name": "Marco Rossi",
      "email": "customer69@clup.com",
      "password": "customer69@clup.com",
      "clup_role": "USER",
      "store_id": null
    },
    {
      "name": "Sara Bianchi",
      "email": "customer70@clup.com",
      "password": "customer70@clup.com",
      "clup_role": "USER",
      "store_id": null
    },
    {
      "name": "Giovanna Verdi",
      "email": "customer71@clup.com",
      "password": "customer71@clup.com",
      "clup_role": "USER",
      "store_id": null
    },
    {
      "name": "Giovanna Rossi",
      "email": "customer72@clup.com",
      "password": "customer72@clup.com",
      "clup_role": "USER",
      "store_id": null
    },
    {
      "name": "Dario Verdi",
      "email": "customer73@clup.com",
      "password": "customer73@clup.com",
      "clup_role": "USER",
      "store_id": null
    },
    {
      "name": "Giovanni Verdi",
      "email": "customer74@clup.com",
      "password": "customer74@clup.com",
      "clup_role": "USER",
      "store_id": null
    },
    {
      "name": "Giovanna Verdi",
      "email": "customer75@clup.com",
      "password": "customer75@clup.com",
      "clup_role": "USER",
      "store_id": null
    },
    {
      "name": "Giovanni Rossi",
      "email": "customer76@clup.com",
      "password": "customer76@clup.com",
      "clup_role": "USER",
      "store_id": null
    },
    {
      "name": "Giovanni Rossi",
      "email": "customer77@clup.com",
      "password": "customer77@clup.com",
      "clup_role": "USER",
      "store_id": null
    },
    {
      "name": "Giovanna Verdi",
      "email": "customer78@clup.com",
      "password": "customer78@clup.com",
      "clup_role": "USER",
      "store_id": null
    },
    {
      "name": "Sara Rossi",
      "email": "customer79@clup.com",
      "password": "customer79@clup.com",
      "clup_role": "USER",
      "store_id": null
    },
    {
      "name": "Matteo Rossi",
      "email": "customer80@clup.com",
      "password": "customer80@clup.com",
      "clup_role": "USER",
      "store_id": null
    },
    {
      "name": "Luca Rossi",
      "email": "customer81@clup.com",
      "password": "customer81@clup.com",
      "clup_role": "USER",
      "store_id": null
    },
    {
      "name": "Luca Rossi",
      "email": "customer82@clup.com",
      "password": "customer82@clup.com",
      "clup_role": "USER",
      "store_id": null
    },
    {
      "name": "Luca Verdi",
      "email": "customer83@clup.com",
      "password": "customer83@clup.com",
      "clup_role": "USER",
      "store_id": null
    },
    {
      "name": "Giovanna Bianchi",
      "email": "customer84@clup.com",
      "password": "customer84@clup.com",
      "clup_role": "USER",
      "store_id": null
    },
    {
      "name": "Dario Bianchi",
      "email": "customer85@clup.com",
      "password": "customer85@clup.com",
      "clup_role": "USER",
      "store_id": null
    },
    {
      "name": "Giovanni Bianchi",
      "email": "customer86@clup.com",
      "password": "customer86@clup.com",
      "clup_role": "USER",
      "store_id": null
    },
    {
      "name": "Luca Verdi",
      "email": "customer87@clup.com",
      "password": "customer87@clup.com",
      "clup_role": "USER",
      "store_id": null
    },
    {
      "name": "Matteo Rossi",
      "email": "customer88@clup.com",
      "password": "customer88@clup.com",
      "clup_role": "USER",
      "store_id": null
    },
    {
      "name": "Luca Verdi",
      "email": "customer89@clup.com",
      "password": "customer89@clup.com",
      "clup_role": "USER",
      "store_id": null
    },
    {
      "name": "Dario Rossi",
      "email": "customer90@clup.com",
      "password": "customer90@clup.com",
      "clup_role": "USER",
      "store_id": null
    },
    {
      "name": "Giovanna Verdi",
      "email": "customer91@clup.com",
      "password": "customer91@clup.com",
      "clup_role": "USER",
      "store_id": null
    },
    {
      "name": "Giovanni Verdi",
      "email": "customer92@clup.com",
      "password": "customer92@clup.com",
      "clup_role": "USER",
      "store_id": null
    },
    {
      "name": "Adriano Rossi",
      "email": "customer93@clup.com",
      "password": "customer93@clup.com",
      "clup_role": "USER",
      "store_id": null
    },
    {
      "name": "Sara Rossi",
      "email": "customer94@clup.com",
      "password": "customer94@clup.com",
      "clup_role": "USER",
      "store_id": null
    },
    {
      "name": "Luca Bianchi",
      "email": "customer95@clup.com",
      "password": "customer95@clup.com",
      "clup_role": "USER",
      "store_id": null
    },
    {
      "name": "Matteo Bianchi",
      "email": "customer96@clup.com",
      "password": "customer96@clup.com",
      "clup_role": "USER",
      "store_id": null
    },
    {
      "name": "Adriano Verdi",
      "email": "customer97@clup.com",
      "password": "customer97@clup.com",
      "clup_role": "USER",
      "store_id": null
    },
    {
      "name": "Sara Verdi",
      "email": "customer98@clup.com",
      "password": "customer98@clup.com",
      "clup_role": "USER",
      "store_id": null
    },
    {
      "name": "Dario Rossi",
      "email": "customer99@clup.com",
      "password": "customer99@clup.com",
      "clup_role": "USER",
      "store_id": null
    }
  ]
}